{
"type": "FeatureCollection",
"name": "ordinary_compost",
"crs": { "type": "name", "properties": { "name": "urn:ogc:def:crs:OGC:1.3:CRS84" } },
"features": [
{ "type": "Feature", "properties": { "OBJECTID": 1, "SL_NO": 0, "ZN": 1, "WARD": 0, "LAT": 13.15775, "LONG_": 80.28771, "LOCATION": "Sathankadu in Div-7", "TYPE": "Ordinary Compost" }, "geometry": { "type": "Point", "coordinates": [ 80.287709999924303, 13.157749999806301 ] } },
{ "type": "Feature", "properties": { "OBJECTID": 2, "SL_NO": 0, "ZN": 2, "WARD": 0, "LAT": 13.170779, "LONG_": 80.23634, "LOCATION": "Samuvel Burial Ground", "TYPE": "Ordinary Compost" }, "geometry": { "type": "Point", "coordinates": [ 80.236340000361395, 13.1707789996927 ] } },
{ "type": "Feature", "properties": { "OBJECTID": 3, "SL_NO": 0, "ZN": 2, "WARD": 0, "LAT": 13.178062, "LONG_": 80.253151, "LOCATION": "Arulanandam Nagar", "TYPE": "Ordinary Compost" }, "geometry": { "type": "Point", "coordinates": [ 80.253150999549405, 13.1780620001669 ] } },
{ "type": "Feature", "properties": { "OBJECTID": 4, "SL_NO": 0, "ZN": 3, "WARD": 0, "LAT": 13.15066, "LONG_": 80.26098, "LOCATION": "Velu street, Chinnasekkadu", "TYPE": "Ordinary Compost" }, "geometry": { "type": "Point", "coordinates": [ 80.260979999724398, 13.1506600000207 ] } },
{ "type": "Feature", "properties": { "OBJECTID": 5, "SL_NO": 0, "ZN": 4, "WARD": 0, "LAT": 13.148487, "LONG_": 80.250778, "LOCATION": "Manali salai burial ground", "TYPE": "Ordinary Compost" }, "geometry": { "type": "Point", "coordinates": [ 80.250778000205997, 13.148487000204501 ] } },
{ "type": "Feature", "properties": { "OBJECTID": 6, "SL_NO": 0, "ZN": 4, "WARD": 0, "LAT": 13.1444, "LONG_": 80.24324, "LOCATION": "Arul Nagar Main Road", "TYPE": "Ordinary Compost" }, "geometry": { "type": "Point", "coordinates": [ 80.2432400000786, 13.1443999996321 ] } },
{ "type": "Feature", "properties": { "OBJECTID": 7, "SL_NO": 0, "ZN": 4, "WARD": 0, "LAT": 13.13762, "LONG_": 80.2456, "LOCATION": "6th main road Muthamil Nagar 2nd block", "TYPE": "Ordinary Compost" }, "geometry": { "type": "Point", "coordinates": [ 80.245600000242007, 13.1376200000163 ] } },
{ "type": "Feature", "properties": { "OBJECTID": 8, "SL_NO": 0, "ZN": 4, "WARD": 0, "LAT": 13.13544, "LONG_": 80.25328, "LOCATION": "Anjugam Nagar", "TYPE": "Ordinary Compost" }, "geometry": { "type": "Point", "coordinates": [ 80.253280000367397, 13.135439999909099 ] } },
{ "type": "Feature", "properties": { "OBJECTID": 9, "SL_NO": 0, "ZN": 4, "WARD": 0, "LAT": 13.1245, "LONG_": 80.2483, "LOCATION": "Pappathimman Kovil Street, Suzhpunalkarai", "TYPE": "Ordinary Compost" }, "geometry": { "type": "Point", "coordinates": [ 80.248300000262006, 13.124500000147901 ] } },
{ "type": "Feature", "properties": { "OBJECTID": 10, "SL_NO": 0, "ZN": 4, "WARD": 0, "LAT": 13.1264, "LONG_": 80.26194, "LOCATION": "Burial Ground", "TYPE": "Ordinary Compost" }, "geometry": { "type": "Point", "coordinates": [ 80.261940000016295, 13.1264000003824 ] } },
{ "type": "Feature", "properties": { "OBJECTID": 11, "SL_NO": 0, "ZN": 4, "WARD": 0, "LAT": 13.1264, "LONG_": 80.264, "LOCATION": "North Avenue Road", "TYPE": "Ordinary Compost" }, "geometry": { "type": "Point", "coordinates": [ 80.264000000083101, 13.126399999893 ] } },
{ "type": "Feature", "properties": { "OBJECTID": 12, "SL_NO": 0, "ZN": 4, "WARD": 0, "LAT": 13.13182, "LONG_": 80.27958, "LOCATION": "EH Road Near Division Office Back Side", "TYPE": "Ordinary Compost" }, "geometry": { "type": "Point", "coordinates": [ 80.279579999578004, 13.131820000439401 ] } },
{ "type": "Feature", "properties": { "OBJECTID": 13, "SL_NO": 0, "ZN": 4, "WARD": 0, "LAT": 13.13182, "LONG_": 80.27958, "LOCATION": "Nehru Nagar 14th street", "TYPE": "Ordinary Compost" }, "geometry": { "type": "Point", "coordinates": [ 80.279579999578004, 13.131820000439401 ] } },
{ "type": "Feature", "properties": { "OBJECTID": 14, "SL_NO": 0, "ZN": 4, "WARD": 0, "LAT": 13.1334, "LONG_": 80.29245, "LOCATION": "AE Kovil Street", "TYPE": "Ordinary Compost" }, "geometry": { "type": "Point", "coordinates": [ 80.292449999942306, 13.133400000089001 ] } },
{ "type": "Feature", "properties": { "OBJECTID": 15, "SL_NO": 0, "ZN": 4, "WARD": 0, "LAT": 13.12827, "LONG_": 80.28375, "LOCATION": "Thiruvalluvar  Qauarters", "TYPE": "Ordinary Compost" }, "geometry": { "type": "Point", "coordinates": [ 80.283750000290894, 13.1282700002997 ] } },
{ "type": "Feature", "properties": { "OBJECTID": 16, "SL_NO": 0, "ZN": 4, "WARD": 0, "LAT": 13.1202, "LONG_": 80.2724, "LOCATION": "Lime Klin Road Near Thiruvalluvar Nagar", "TYPE": "Ordinary Compost" }, "geometry": { "type": "Point", "coordinates": [ 80.272399999578198, 13.1201999996143 ] } },
{ "type": "Feature", "properties": { "OBJECTID": 17, "SL_NO": 0, "ZN": 4, "WARD": 0, "LAT": 13.1276, "LONG_": 80.29593, "LOCATION": "Thilagar Nagar ( TNSCB )", "TYPE": "Ordinary Compost" }, "geometry": { "type": "Point", "coordinates": [ 80.2959300001597, 13.127600000056701 ] } },
{ "type": "Feature", "properties": { "OBJECTID": 18, "SL_NO": 0, "ZN": 4, "WARD": 0, "LAT": 13.12966, "LONG_": 80.29593, "LOCATION": "Kasimedu Burial Ground", "TYPE": "Ordinary Compost" }, "geometry": { "type": "Point", "coordinates": [ 80.295929999909603, 13.129659999743099 ] } },
{ "type": "Feature", "properties": { "OBJECTID": 19, "SL_NO": 0, "ZN": 4, "WARD": 0, "LAT": 13.1155, "LONG_": 80.247, "LOCATION": "Rani Ammaiyar Street ( Near Nagathamman Temple )", "TYPE": "Ordinary Compost" }, "geometry": { "type": "Point", "coordinates": [ 80.247000000006295, 13.115499999853601 ] } },
{ "type": "Feature", "properties": { "OBJECTID": 20, "SL_NO": 0, "ZN": 4, "WARD": 0, "LAT": 13.11719, "LONG_": 80.25585, "LOCATION": "MPM Street ( Fire Service )", "TYPE": "Ordinary Compost" }, "geometry": { "type": "Point", "coordinates": [ 80.255850000392002, 13.1171900000293 ] } },
{ "type": "Feature", "properties": { "OBJECTID": 21, "SL_NO": 0, "ZN": 4, "WARD": 0, "LAT": 13.11321, "LONG_": 80.25698, "LOCATION": "MPM Street ( Old MLA Office opposite )", "TYPE": "Ordinary Compost" }, "geometry": { "type": "Point", "coordinates": [ 80.256979999608006, 13.113210000359199 ] } },
{ "type": "Feature", "properties": { "OBJECTID": 22, "SL_NO": 0, "ZN": 4, "WARD": 0, "LAT": 13.11719, "LONG_": 80.25585, "LOCATION": "Clinic road", "TYPE": "Ordinary Compost" }, "geometry": { "type": "Point", "coordinates": [ 80.255850000392002, 13.1171900000293 ] } },
{ "type": "Feature", "properties": { "OBJECTID": 23, "SL_NO": 0, "ZN": 4, "WARD": 0, "LAT": 13.11584, "LONG_": 80.27229, "LOCATION": "B Canal", "TYPE": "Ordinary Compost" }, "geometry": { "type": "Point", "coordinates": [ 80.272290000423496, 13.1158399997688 ] } },
{ "type": "Feature", "properties": { "OBJECTID": 24, "SL_NO": 0, "ZN": 4, "WARD": 0, "LAT": 13.44557, "LONG_": 80.27618, "LOCATION": "C.B Road oswal apartments Back Side", "TYPE": "Ordinary Compost" }, "geometry": { "type": "Point", "coordinates": [ 80.276180000344198, 13.4455699997678 ] } },
{ "type": "Feature", "properties": { "OBJECTID": 25, "SL_NO": 0, "ZN": 4, "WARD": 0, "LAT": 13.1044, "LONG_": 80.27541, "LOCATION": "Zone-IV TPF", "TYPE": "Ordinary Compost" }, "geometry": { "type": "Point", "coordinates": [ 80.275410000418503, 13.1044000001589 ] } },
{ "type": "Feature", "properties": { "OBJECTID": 26, "SL_NO": 0, "ZN": 4, "WARD": 0, "LAT": 13.1255, "LONG_": 80.2758, "LOCATION": "Parthasarthy Street  Near (Unit-11 Office)", "TYPE": "Ordinary Compost" }, "geometry": { "type": "Point", "coordinates": [ 80.275799999775501, 13.1255000003581 ] } },
{ "type": "Feature", "properties": { "OBJECTID": 27, "SL_NO": 0, "ZN": 5, "WARD": 0, "LAT": 13.106819, "LONG_": 80.291203, "LOCATION": "O.S.H road", "TYPE": "Ordinary Compost" }, "geometry": { "type": "Point", "coordinates": [ 80.291202999602504, 13.106818999584901 ] } },
{ "type": "Feature", "properties": { "OBJECTID": 28, "SL_NO": 0, "ZN": 5, "WARD": 0, "LAT": 13.102523, "LONG_": 80.27006, "LOCATION": "Moolakothalam Burial Ground", "TYPE": "Ordinary Compost" }, "geometry": { "type": "Point", "coordinates": [ 80.270059999659395, 13.102522699886499 ] } },
{ "type": "Feature", "properties": { "OBJECTID": 29, "SL_NO": 0, "ZN": 5, "WARD": 0, "LAT": 13.10289, "LONG_": 80.27403, "LOCATION": "Wall tax road", "TYPE": "Ordinary Compost" }, "geometry": { "type": "Point", "coordinates": [ 80.274029999955303, 13.1028900000387 ] } },
{ "type": "Feature", "properties": { "OBJECTID": 30, "SL_NO": 0, "ZN": 5, "WARD": 0, "LAT": 13.07257, "LONG_": 80.265, "LOCATION": "Ayya Sami Street, Old TPF", "TYPE": "Ordinary Compost" }, "geometry": { "type": "Point", "coordinates": [ 80.265000000019896, 13.072570000372 ] } },
{ "type": "Feature", "properties": { "OBJECTID": 31, "SL_NO": 0, "ZN": 5, "WARD": 0, "LAT": 13.072195, "LONG_": 80.270965, "LOCATION": "Adhi kesavalu street", "TYPE": "Ordinary Compost" }, "geometry": { "type": "Point", "coordinates": [ 80.2709650000387, 13.072194999944101 ] } },
{ "type": "Feature", "properties": { "OBJECTID": 32, "SL_NO": 0, "ZN": 6, "WARD": 0, "LAT": 13.12459, "LONG_": 80.22141, "LOCATION": "Sembium Redhills Road - Uzhavar Santhai", "TYPE": "Ordinary Compost" }, "geometry": { "type": "Point", "coordinates": [ 80.221409999558801, 13.124589999725201 ] } },
{ "type": "Feature", "properties": { "OBJECTID": 33, "SL_NO": 0, "ZN": 6, "WARD": 0, "LAT": 13.111641, "LONG_": 80.215523, "LOCATION": "Jambulingam Main Road Burial ground", "TYPE": "Ordinary Compost" }, "geometry": { "type": "Point", "coordinates": [ 80.215523000212798, 13.1116409998588 ] } },
{ "type": "Feature", "properties": { "OBJECTID": 34, "SL_NO": 0, "ZN": 6, "WARD": 0, "LAT": 13.111862, "LONG_": 80.23205, "LOCATION": "Thanthonriamman Koil street in open ground (1)", "TYPE": "Ordinary Compost" }, "geometry": { "type": "Point", "coordinates": [ 80.232050000402594, 13.111861890088999 ] } },
{ "type": "Feature", "properties": { "OBJECTID": 35, "SL_NO": 0, "ZN": 6, "WARD": 0, "LAT": 13.111862, "LONG_": 80.23205, "LOCATION": "Thanthonriamman Koil street in open ground (2)", "TYPE": "Ordinary Compost" }, "geometry": { "type": "Point", "coordinates": [ 80.232050000402594, 13.111861890088999 ] } },
{ "type": "Feature", "properties": { "OBJECTID": 36, "SL_NO": 0, "ZN": 6, "WARD": 0, "LAT": 13.12234, "LONG_": 80.23829, "LOCATION": "Thangal burila ground - Pallavan Salai BG", "TYPE": "Ordinary Compost" }, "geometry": { "type": "Point", "coordinates": [ 80.238289999874397, 13.1223400001721 ] } },
{ "type": "Feature", "properties": { "OBJECTID": 37, "SL_NO": 0, "ZN": 6, "WARD": 0, "LAT": 13.10919, "LONG_": 80.24318, "LOCATION": "Anderson Road (open Bus Depot)", "TYPE": "Ordinary Compost" }, "geometry": { "type": "Point", "coordinates": [ 80.243179999998702, 13.109189999664601 ] } },
{ "type": "Feature", "properties": { "OBJECTID": 38, "SL_NO": 0, "ZN": 6, "WARD": 0, "LAT": 13.105737, "LONG_": 80.252785, "LOCATION": "Tank Link raod (opp to DRBCC ground)", "TYPE": "Ordinary Compost" }, "geometry": { "type": "Point", "coordinates": [ 80.252784999551693, 13.105736669549801 ] } },
{ "type": "Feature", "properties": { "OBJECTID": 39, "SL_NO": 0, "ZN": 6, "WARD": 0, "LAT": 13.10981, "LONG_": 80.244, "LOCATION": "Perambur High Road South( near rajiv Gandhi park)", "TYPE": "Ordinary Compost" }, "geometry": { "type": "Point", "coordinates": [ 80.244000000001407, 13.109810000040101 ] } },
{ "type": "Feature", "properties": { "OBJECTID": 40, "SL_NO": 0, "ZN": 6, "WARD": 0, "LAT": 13.105737, "LONG_": 80.252785, "LOCATION": "Tank Link raod (opp to DRBCC ground)", "TYPE": "Ordinary Compost" }, "geometry": { "type": "Point", "coordinates": [ 80.252784999551693, 13.105736669549801 ] } },
{ "type": "Feature", "properties": { "OBJECTID": 41, "SL_NO": 0, "ZN": 6, "WARD": 0, "LAT": 13.107308, "LONG_": 80.246367, "LOCATION": "Perambur High Road South (Old Lorry Station)", "TYPE": "Ordinary Compost" }, "geometry": { "type": "Point", "coordinates": [ 80.2463666597329, 13.107308330436201 ] } },
{ "type": "Feature", "properties": { "OBJECTID": 42, "SL_NO": 0, "ZN": 6, "WARD": 0, "LAT": 13.10726, "LONG_": 80.26695, "LOCATION": "Kannigapuram", "TYPE": "Ordinary Compost" }, "geometry": { "type": "Point", "coordinates": [ 80.266950000249196, 13.1072599995502 ] } },
{ "type": "Feature", "properties": { "OBJECTID": 43, "SL_NO": 0, "ZN": 6, "WARD": 0, "LAT": 13.0987, "LONG_": 80.25719, "LOCATION": "New Ferrance Road", "TYPE": "Ordinary Compost" }, "geometry": { "type": "Point", "coordinates": [ 80.257189999841003, 13.098699999888799 ] } },
{ "type": "Feature", "properties": { "OBJECTID": 44, "SL_NO": 0, "ZN": 6, "WARD": 0, "LAT": 13.09359, "LONG_": 80.24275, "LOCATION": "Pumping Station Near Govt Politechnic", "TYPE": "Ordinary Compost" }, "geometry": { "type": "Point", "coordinates": [ 80.242750000209, 13.093590000162999 ] } },
{ "type": "Feature", "properties": { "OBJECTID": 45, "SL_NO": 0, "ZN": 6, "WARD": 0, "LAT": 13.093538, "LONG_": 80.242944, "LOCATION": "Otteri Dumping Ground", "TYPE": "Ordinary Compost" }, "geometry": { "type": "Point", "coordinates": [ 80.242943999688194, 13.093537999662701 ] } },
{ "type": "Feature", "properties": { "OBJECTID": 46, "SL_NO": 0, "ZN": 6, "WARD": 0, "LAT": 13.09353, "LONG_": 80.24294, "LOCATION": "Barackka Road (opp to G5 Police station)", "TYPE": "Ordinary Compost" }, "geometry": { "type": "Point", "coordinates": [ 80.242939999549606, 13.0935300002765 ] } },
{ "type": "Feature", "properties": { "OBJECTID": 47, "SL_NO": 0, "ZN": 6, "WARD": 0, "LAT": 13.092706, "LONG_": 80.249229, "LOCATION": "Contransmith nagar (Division Office)", "TYPE": "Ordinary Compost" }, "geometry": { "type": "Point", "coordinates": [ 80.249228999709601, 13.092706159694499 ] } },
{ "type": "Feature", "properties": { "OBJECTID": 48, "SL_NO": 0, "ZN": 6, "WARD": 0, "LAT": 13.09596, "LONG_": 80.25811, "LOCATION": "Perambur Baracks Road (old division office)", "TYPE": "Ordinary Compost" }, "geometry": { "type": "Point", "coordinates": [ 80.258110000392094, 13.0959599996213 ] } },
{ "type": "Feature", "properties": { "OBJECTID": 49, "SL_NO": 0, "ZN": 6, "WARD": 0, "LAT": 13.094379, "LONG_": 80.268516, "LOCATION": "Elephantgate Rd", "TYPE": "Ordinary Compost" }, "geometry": { "type": "Point", "coordinates": [ 80.268515879800404, 13.0943785096926 ] } },
{ "type": "Feature", "properties": { "OBJECTID": 50, "SL_NO": 0, "ZN": 6, "WARD": 0, "LAT": 13.093204, "LONG_": 80.262578, "LOCATION": "Astabujam Rd (Division Office)", "TYPE": "Ordinary Compost" }, "geometry": { "type": "Point", "coordinates": [ 80.262577799617503, 13.0932035403022 ] } },
{ "type": "Feature", "properties": { "OBJECTID": 51, "SL_NO": 0, "ZN": 6, "WARD": 0, "LAT": 13.09177, "LONG_": 80.25896, "LOCATION": "Manikkam Street (jn of perambur baracks road)", "TYPE": "Ordinary Compost" }, "geometry": { "type": "Point", "coordinates": [ 80.258960000102803, 13.091769999584301 ] } },
{ "type": "Feature", "properties": { "OBJECTID": 52, "SL_NO": 0, "ZN": 6, "WARD": 0, "LAT": 13.091829, "LONG_": 80.259178, "LOCATION": "Chokkavel Subramaniam Street (Kuravan Kulam)", "TYPE": "Ordinary Compost" }, "geometry": { "type": "Point", "coordinates": [ 80.259178360414296, 13.0918285096687 ] } },
{ "type": "Feature", "properties": { "OBJECTID": 53, "SL_NO": 0, "ZN": 7, "WARD": 0, "LAT": 13.1405, "LONG_": 80.15835, "LOCATION": "oragadam Burial ground", "TYPE": "Ordinary Compost" }, "geometry": { "type": "Point", "coordinates": [ 80.158350000293794, 13.1404999998507 ] } },
{ "type": "Feature", "properties": { "OBJECTID": 54, "SL_NO": 0, "ZN": 7, "WARD": 0, "LAT": 13.12324, "LONG_": 80.15955, "LOCATION": "Thangal lake park", "TYPE": "Ordinary Compost" }, "geometry": { "type": "Point", "coordinates": [ 80.159549999972597, 13.1232400001368 ] } },
{ "type": "Feature", "properties": { "OBJECTID": 55, "SL_NO": 0, "ZN": 7, "WARD": 0, "LAT": 13.12493, "LONG_": 80.16946, "LOCATION": "Menambedu burial ground", "TYPE": "Ordinary Compost" }, "geometry": { "type": "Point", "coordinates": [ 80.169459999717006, 13.1249299998191 ] } },
{ "type": "Feature", "properties": { "OBJECTID": 56, "SL_NO": 0, "ZN": 7, "WARD": 0, "LAT": 13.12505, "LONG_": 80.16957, "LOCATION": "Menambedu burial ground", "TYPE": "Ordinary Compost" }, "geometry": { "type": "Point", "coordinates": [ 80.169570000004498, 13.125049999941799 ] } },
{ "type": "Feature", "properties": { "OBJECTID": 57, "SL_NO": 0, "ZN": 7, "WARD": 0, "LAT": 13.11134, "LONG_": 80.18716, "LOCATION": "TNHB 61th street Park", "TYPE": "Ordinary Compost" }, "geometry": { "type": "Point", "coordinates": [ 80.187159999923097, 13.111339999811699 ] } },
{ "type": "Feature", "properties": { "OBJECTID": 58, "SL_NO": 0, "ZN": 7, "WARD": 0, "LAT": 13.09949, "LONG_": 80.18716, "LOCATION": "kannagi Nagar Burial ground", "TYPE": "Ordinary Compost" }, "geometry": { "type": "Point", "coordinates": [ 80.187159999760198, 13.0994900002647 ] } },
{ "type": "Feature", "properties": { "OBJECTID": 59, "SL_NO": 0, "ZN": 7, "WARD": 0, "LAT": 13.0994, "LONG_": 80.15037, "LOCATION": "Athipet Dumping Yard", "TYPE": "Ordinary Compost" }, "geometry": { "type": "Point", "coordinates": [ 80.150369999729804, 13.0994000001602 ] } },
{ "type": "Feature", "properties": { "OBJECTID": 60, "SL_NO": 0, "ZN": 7, "WARD": 0, "LAT": 13.09782, "LONG_": 80.14983, "LOCATION": "Athipet Dumping Yard", "TYPE": "Ordinary Compost" }, "geometry": { "type": "Point", "coordinates": [ 80.149830000011505, 13.097819999558199 ] } },
{ "type": "Feature", "properties": { "OBJECTID": 61, "SL_NO": 0, "ZN": 7, "WARD": 0, "LAT": 13.09191, "LONG_": 80.17723, "LOCATION": "Burial ground,Mogappair road,Dn - 92", "TYPE": "Ordinary Compost" }, "geometry": { "type": "Point", "coordinates": [ 80.177230000342703, 13.0919100000642 ] } },
{ "type": "Feature", "properties": { "OBJECTID": 62, "SL_NO": 0, "ZN": 7, "WARD": 0, "LAT": 13.09036, "LONG_": 80.19418, "LOCATION": "Pandurangapuram Burial Ground", "TYPE": "Ordinary Compost" }, "geometry": { "type": "Point", "coordinates": [ 80.194179999554606, 13.0903599998289 ] } },
{ "type": "Feature", "properties": { "OBJECTID": 63, "SL_NO": 0, "ZN": 7, "WARD": 0, "LAT": 13.07765, "LONG_": 80.18068, "LOCATION": "Elango Nagar Burial ground", "TYPE": "Ordinary Compost" }, "geometry": { "type": "Point", "coordinates": [ 80.180679999692899, 13.0776500002455 ] } },
{ "type": "Feature", "properties": { "OBJECTID": 64, "SL_NO": 0, "ZN": 7, "WARD": 0, "LAT": 13.07923, "LONG_": 80.19062, "LOCATION": "Padikuppam Burial ground road", "TYPE": "Ordinary Compost" }, "geometry": { "type": "Point", "coordinates": [ 80.190620000426904, 13.0792300000445 ] } },
{ "type": "Feature", "properties": { "OBJECTID": 65, "SL_NO": 0, "ZN": 7, "WARD": 0, "LAT": 13.08389, "LONG_": 80.18834, "LOCATION": "Mogappair Eri Scheme 4th main road", "TYPE": "Ordinary Compost" }, "geometry": { "type": "Point", "coordinates": [ 80.188340000334094, 13.0838900001099 ] } },
{ "type": "Feature", "properties": { "OBJECTID": 66, "SL_NO": 0, "ZN": 7, "WARD": 0, "LAT": 13.09191, "LONG_": 80.17723, "LOCATION": "Mogappair Road,Burial ground", "TYPE": "Ordinary Compost" }, "geometry": { "type": "Point", "coordinates": [ 80.177230000342703, 13.0919100000642 ] } },
{ "type": "Feature", "properties": { "OBJECTID": 67, "SL_NO": 0, "ZN": 7, "WARD": 0, "LAT": 13.07246, "LONG_": 80.17978, "LOCATION": "Gangai amman koil street", "TYPE": "Ordinary Compost" }, "geometry": { "type": "Point", "coordinates": [ 80.179780000447295, 13.0724600003315 ] } },
{ "type": "Feature", "properties": { "OBJECTID": 68, "SL_NO": 0, "ZN": 8, "WARD": 0, "LAT": 13.11562, "LONG_": 80.20433, "LOCATION": "MTH Road (inside Burial Ground)", "TYPE": "Ordinary Compost" }, "geometry": { "type": "Point", "coordinates": [ 80.204330000129204, 13.115619999660099 ] } },
{ "type": "Feature", "properties": { "OBJECTID": 69, "SL_NO": 0, "ZN": 8, "WARD": 0, "LAT": 13.1171, "LONG_": 80.2012, "LOCATION": "R.K. Link road", "TYPE": "Ordinary Compost" }, "geometry": { "type": "Point", "coordinates": [ 80.201200000312895, 13.117100000398199 ] } },
{ "type": "Feature", "properties": { "OBJECTID": 70, "SL_NO": 0, "ZN": 8, "WARD": 0, "LAT": 13.1034, "LONG_": 80.1938, "LOCATION": "Vilivakkam Burilal Ground", "TYPE": "Ordinary Compost" }, "geometry": { "type": "Point", "coordinates": [ 80.193799999831597, 13.103399999832501 ] } },
{ "type": "Feature", "properties": { "OBJECTID": 71, "SL_NO": 0, "ZN": 8, "WARD": 0, "LAT": 13.1171, "LONG_": 80.2012, "LOCATION": "R.K. Link road", "TYPE": "Ordinary Compost" }, "geometry": { "type": "Point", "coordinates": [ 80.201200000312895, 13.117100000398199 ] } },
{ "type": "Feature", "properties": { "OBJECTID": 72, "SL_NO": 0, "ZN": 8, "WARD": 0, "LAT": 13.10043, "LONG_": 80.20749, "LOCATION": "New Avadi Road (near Slaughterhouse )", "TYPE": "Ordinary Compost" }, "geometry": { "type": "Point", "coordinates": [ 80.207489999611795, 13.1004299996379 ] } },
{ "type": "Feature", "properties": { "OBJECTID": 73, "SL_NO": 0, "ZN": 8, "WARD": 0, "LAT": 13.1008, "LONG_": 80.2019, "LOCATION": "Thirumangalam road", "TYPE": "Ordinary Compost" }, "geometry": { "type": "Point", "coordinates": [ 80.201900000226502, 13.1007999996044 ] } },
{ "type": "Feature", "properties": { "OBJECTID": 74, "SL_NO": 0, "ZN": 8, "WARD": 0, "LAT": 13.07992, "LONG_": 80.23468, "LOCATION": "Konnur High Road (Near Amma Unavagam Compost Yard)", "TYPE": "Ordinary Compost" }, "geometry": { "type": "Point", "coordinates": [ 80.234679999848098, 13.0799199996735 ] } },
{ "type": "Feature", "properties": { "OBJECTID": 75, "SL_NO": 0, "ZN": 8, "WARD": 0, "LAT": 13.0977, "LONG_": 80.2422, "LOCATION": "Konnur High Road  Near Amma Unavagam", "TYPE": "Ordinary Compost" }, "geometry": { "type": "Point", "coordinates": [ 80.242200000080402, 13.0977000002724 ] } },
{ "type": "Feature", "properties": { "OBJECTID": 76, "SL_NO": 0, "ZN": 8, "WARD": 0, "LAT": 13.0997, "LONG_": 80.2395, "LOCATION": "Konnur High, Sayani", "TYPE": "Ordinary Compost" }, "geometry": { "type": "Point", "coordinates": [ 80.239500000308198, 13.0996999998485 ] } },
{ "type": "Feature", "properties": { "OBJECTID": 77, "SL_NO": 0, "ZN": 8, "WARD": 0, "LAT": 13.09295, "LONG_": 80.22641, "LOCATION": "Muthamman Kovil Nagar", "TYPE": "Ordinary Compost" }, "geometry": { "type": "Point", "coordinates": [ 80.226409999725504, 13.0929500002452 ] } },
{ "type": "Feature", "properties": { "OBJECTID": 78, "SL_NO": 0, "ZN": 8, "WARD": 0, "LAT": 13.1151, "LONG_": 80.2233, "LOCATION": "Thandhai Periyar Nagar", "TYPE": "Ordinary Compost" }, "geometry": { "type": "Point", "coordinates": [ 80.2233000001102, 13.115100000363601 ] } },
{ "type": "Feature", "properties": { "OBJECTID": 79, "SL_NO": 0, "ZN": 8, "WARD": 0, "LAT": 13.116, "LONG_": 80.2375, "LOCATION": "Kunjudham Kurusamy street", "TYPE": "Ordinary Compost" }, "geometry": { "type": "Point", "coordinates": [ 80.237499999862294, 13.116000000445901 ] } },
{ "type": "Feature", "properties": { "OBJECTID": 80, "SL_NO": 0, "ZN": 8, "WARD": 0, "LAT": 13.08549, "LONG_": 80.2399, "LOCATION": "Aspiran Garden 1st street", "TYPE": "Ordinary Compost" }, "geometry": { "type": "Point", "coordinates": [ 80.239899999847395, 13.085490000412401 ] } },
{ "type": "Feature", "properties": { "OBJECTID": 81, "SL_NO": 0, "ZN": 8, "WARD": 0, "LAT": 13.0867, "LONG_": 80.2352, "LOCATION": "Samydhasan  Puram", "TYPE": "Ordinary Compost" }, "geometry": { "type": "Point", "coordinates": [ 80.235199999684596, 13.0866999999512 ] } },
{ "type": "Feature", "properties": { "OBJECTID": 82, "SL_NO": 0, "ZN": 8, "WARD": 0, "LAT": 13.09256, "LONG_": 80.21109, "LOCATION": "6th Avenue ( EB Office Opp)", "TYPE": "Ordinary Compost" }, "geometry": { "type": "Point", "coordinates": [ 80.211090000251502, 13.0925599996353 ] } },
{ "type": "Feature", "properties": { "OBJECTID": 83, "SL_NO": 0, "ZN": 8, "WARD": 0, "LAT": 13.09256, "LONG_": 80.21109, "LOCATION": "6th Avenue (1)", "TYPE": "Ordinary Compost" }, "geometry": { "type": "Point", "coordinates": [ 80.211090000251502, 13.0925599996353 ] } },
{ "type": "Feature", "properties": { "OBJECTID": 84, "SL_NO": 0, "ZN": 8, "WARD": 0, "LAT": 13.0759, "LONG_": 80.2147, "LOCATION": "Arumpakkam Burial Ground (1)", "TYPE": "Ordinary Compost" }, "geometry": { "type": "Point", "coordinates": [ 80.214699999626006, 13.075900000069 ] } },
{ "type": "Feature", "properties": { "OBJECTID": 85, "SL_NO": 0, "ZN": 8, "WARD": 0, "LAT": 13.09256, "LONG_": 80.21109, "LOCATION": "6th Avenue (2)", "TYPE": "Ordinary Compost" }, "geometry": { "type": "Point", "coordinates": [ 80.211090000251502, 13.0925599996353 ] } },
{ "type": "Feature", "properties": { "OBJECTID": 86, "SL_NO": 0, "ZN": 8, "WARD": 0, "LAT": 13.0759, "LONG_": 80.2147, "LOCATION": "Arumpakkam Burial Ground (2)", "TYPE": "Ordinary Compost" }, "geometry": { "type": "Point", "coordinates": [ 80.214699999626006, 13.075900000069 ] } },
{ "type": "Feature", "properties": { "OBJECTID": 87, "SL_NO": 0, "ZN": 8, "WARD": 0, "LAT": 13.0759, "LONG_": 80.2147, "LOCATION": "Arumpakkam Burial Ground (3)", "TYPE": "Ordinary Compost" }, "geometry": { "type": "Point", "coordinates": [ 80.214699999626006, 13.075900000069 ] } },
{ "type": "Feature", "properties": { "OBJECTID": 88, "SL_NO": 0, "ZN": 8, "WARD": 0, "LAT": 13.09534, "LONG_": 80.2219, "LOCATION": "N Block", "TYPE": "Ordinary Compost" }, "geometry": { "type": "Point", "coordinates": [ 80.221899999715205, 13.095340000191801 ] } },
{ "type": "Feature", "properties": { "OBJECTID": 89, "SL_NO": 0, "ZN": 8, "WARD": 0, "LAT": 13.0815, "LONG_": 80.2201, "LOCATION": "Cresent Ply ground", "TYPE": "Ordinary Compost" }, "geometry": { "type": "Point", "coordinates": [ 80.220100000023194, 13.0814999999356 ] } },
{ "type": "Feature", "properties": { "OBJECTID": 90, "SL_NO": 0, "ZN": 8, "WARD": 0, "LAT": 13.087721, "LONG_": 80.234301, "LOCATION": "Cementry Road Burial Ground in side", "TYPE": "Ordinary Compost" }, "geometry": { "type": "Point", "coordinates": [ 80.2343010003149, 13.087721000177201 ] } },
{ "type": "Feature", "properties": { "OBJECTID": 91, "SL_NO": 0, "ZN": 8, "WARD": 0, "LAT": 13.0842, "LONG_": 80.2306, "LOCATION": "Jn .Of Kilpauk Garden Road & cemetry Road", "TYPE": "Ordinary Compost" }, "geometry": { "type": "Point", "coordinates": [ 80.230600000424403, 13.084200000409799 ] } },
{ "type": "Feature", "properties": { "OBJECTID": 92, "SL_NO": 0, "ZN": 8, "WARD": 0, "LAT": 13.0877, "LONG_": 80.2323, "LOCATION": "New avadi Road", "TYPE": "Ordinary Compost" }, "geometry": { "type": "Point", "coordinates": [ 80.232300000285093, 13.0876999996624 ] } },
{ "type": "Feature", "properties": { "OBJECTID": 93, "SL_NO": 0, "ZN": 8, "WARD": 0, "LAT": 13.07992, "LONG_": 80.23468, "LOCATION": "Temple Street", "TYPE": "Ordinary Compost" }, "geometry": { "type": "Point", "coordinates": [ 80.234679999848098, 13.0799199996735 ] } },
{ "type": "Feature", "properties": { "OBJECTID": 94, "SL_NO": 0, "ZN": 8, "WARD": 0, "LAT": 13.09056, "LONG_": 80.24923, "LOCATION": "Bricklin Road Burial Gound in side", "TYPE": "Ordinary Compost" }, "geometry": { "type": "Point", "coordinates": [ 80.249229999832707, 13.0905600002346 ] } },
{ "type": "Feature", "properties": { "OBJECTID": 95, "SL_NO": 0, "ZN": 8, "WARD": 0, "LAT": 13.0907, "LONG_": 80.2514, "LOCATION": "Otteri Burial Ground", "TYPE": "Ordinary Compost" }, "geometry": { "type": "Point", "coordinates": [ 80.251400000238704, 13.090699999630001 ] } },
{ "type": "Feature", "properties": { "OBJECTID": 96, "SL_NO": 0, "ZN": 8, "WARD": 0, "LAT": 13.06883, "LONG_": 80.21698, "LOCATION": "Kalki nagar main road", "TYPE": "Ordinary Compost" }, "geometry": { "type": "Point", "coordinates": [ 80.216979999842394, 13.0688299998089 ] } },
{ "type": "Feature", "properties": { "OBJECTID": 97, "SL_NO": 0, "ZN": 8, "WARD": 0, "LAT": 13.07426, "LONG_": 80.23982, "LOCATION": "McNichols Road Old Zone -5 Office", "TYPE": "Ordinary Compost" }, "geometry": { "type": "Point", "coordinates": [ 80.239820000108907, 13.074260000209801 ] } },
{ "type": "Feature", "properties": { "OBJECTID": 98, "SL_NO": 0, "ZN": 8, "WARD": 0, "LAT": 13.0713, "LONG_": 80.2479, "LOCATION": "Meyar Ramanadhan Salai", "TYPE": "Ordinary Compost" }, "geometry": { "type": "Point", "coordinates": [ 80.247900000370905, 13.071299999839299 ] } },
{ "type": "Feature", "properties": { "OBJECTID": 99, "SL_NO": 0, "ZN": 8, "WARD": 0, "LAT": 13.0407, "LONG_": 80.13011, "LOCATION": "Water Tank Road", "TYPE": "Ordinary Compost" }, "geometry": { "type": "Point", "coordinates": [ 80.130110000277895, 13.040700000283101 ] } },
{ "type": "Feature", "properties": { "OBJECTID": 100, "SL_NO": 0, "ZN": 9, "WARD": 0, "LAT": 13.06377, "LONG_": 80.22438, "LOCATION": "Central School Road", "TYPE": "Ordinary Compost" }, "geometry": { "type": "Point", "coordinates": [ 80.224380000280902, 13.063769999978399 ] } },
{ "type": "Feature", "properties": { "OBJECTID": 101, "SL_NO": 0, "ZN": 9, "WARD": 0, "LAT": 13.06654, "LONG_": 80.23396, "LOCATION": "Nungambakkam Burial Ground", "TYPE": "Ordinary Compost" }, "geometry": { "type": "Point", "coordinates": [ 80.233960000350905, 13.0665399996142 ] } },
{ "type": "Feature", "properties": { "OBJECTID": 102, "SL_NO": 0, "ZN": 9, "WARD": 0, "LAT": 13.06181, "LONG_": 80.2597, "LOCATION": "Spencer Plaza Park", "TYPE": "Ordinary Compost" }, "geometry": { "type": "Point", "coordinates": [ 80.259700000351302, 13.0618099998371 ] } },
{ "type": "Feature", "properties": { "OBJECTID": 103, "SL_NO": 0, "ZN": 9, "WARD": 0, "LAT": 13.05512, "LONG_": 80.22589, "LOCATION": "Puliyur 1 St Main Road", "TYPE": "Ordinary Compost" }, "geometry": { "type": "Point", "coordinates": [ 80.225890000168405, 13.055120000233799 ] } },
{ "type": "Feature", "properties": { "OBJECTID": 104, "SL_NO": 0, "ZN": 9, "WARD": 0, "LAT": 13.0573, "LONG_": 80.24279, "LOCATION": "Valluvarkottam High Road", "TYPE": "Ordinary Compost" }, "geometry": { "type": "Point", "coordinates": [ 80.242790000262204, 13.0573000000155 ] } },
{ "type": "Feature", "properties": { "OBJECTID": 105, "SL_NO": 0, "ZN": 9, "WARD": 0, "LAT": 13.06081, "LONG_": 80.26953, "LOCATION": "Mir Bakshi Ali Street", "TYPE": "Ordinary Compost" }, "geometry": { "type": "Point", "coordinates": [ 80.269529999842206, 13.060809999951999 ] } },
{ "type": "Feature", "properties": { "OBJECTID": 106, "SL_NO": 0, "ZN": 9, "WARD": 0, "LAT": 13.05123, "LONG_": 80.27774, "LOCATION": "Dr.Besant Road", "TYPE": "Ordinary Compost" }, "geometry": { "type": "Point", "coordinates": [ 80.277739999943705, 13.051230000286299 ] } },
{ "type": "Feature", "properties": { "OBJECTID": 107, "SL_NO": 0, "ZN": 9, "WARD": 0, "LAT": 13.03956, "LONG_": 80.246, "LOCATION": "Thiru.Vi.Ka.Kudiyiruppa", "TYPE": "Ordinary Compost" }, "geometry": { "type": "Point", "coordinates": [ 80.246000000374806, 13.039560000402499 ] } },
{ "type": "Feature", "properties": { "OBJECTID": 108, "SL_NO": 0, "ZN": 9, "WARD": 0, "LAT": 13.03632, "LONG_": 80.24744, "LOCATION": "Scheme Road", "TYPE": "Ordinary Compost" }, "geometry": { "type": "Point", "coordinates": [ 80.247439999836701, 13.036320000329701 ] } },
{ "type": "Feature", "properties": { "OBJECTID": 109, "SL_NO": 0, "ZN": 9, "WARD": 0, "LAT": 13.03963, "LONG_": 80.259, "LOCATION": "C.I.T Colony 6th Cross St", "TYPE": "Ordinary Compost" }, "geometry": { "type": "Point", "coordinates": [ 80.258999999881397, 13.0396299995666 ] } },
{ "type": "Feature", "properties": { "OBJECTID": 110, "SL_NO": 0, "ZN": 9, "WARD": 0, "LAT": 13.05118, "LONG_": 80.27756, "LOCATION": "Krishnapet Burial Ground", "TYPE": "Ordinary Compost" }, "geometry": { "type": "Point", "coordinates": [ 80.277559999778802, 13.051179999950699 ] } },
{ "type": "Feature", "properties": { "OBJECTID": 111, "SL_NO": 0, "ZN": 9, "WARD": 0, "LAT": 13.05099, "LONG_": 80.27757, "LOCATION": "Krishnapet Burial Ground", "TYPE": "Ordinary Compost" }, "geometry": { "type": "Point", "coordinates": [ 80.277570000377594, 13.0509899996327 ] } },
{ "type": "Feature", "properties": { "OBJECTID": 112, "SL_NO": 0, "ZN": 9, "WARD": 0, "LAT": 13.03735, "LONG_": 80.26369, "LOCATION": "C.P.Ramaswamy Road", "TYPE": "Ordinary Compost" }, "geometry": { "type": "Point", "coordinates": [ 80.263690000116895, 13.0373499996406 ] } },
{ "type": "Feature", "properties": { "OBJECTID": 113, "SL_NO": 0, "ZN": 9, "WARD": 0, "LAT": 13.03632, "LONG_": 80.26809, "LOCATION": "Kutchery Road", "TYPE": "Ordinary Compost" }, "geometry": { "type": "Point", "coordinates": [ 80.268090000242694, 13.036319999914101 ] } },
{ "type": "Feature", "properties": { "OBJECTID": 114, "SL_NO": 0, "ZN": 9, "WARD": 0, "LAT": 13.04129, "LONG_": 80.27677, "LOCATION": "Mylapore Burial Ground", "TYPE": "Ordinary Compost" }, "geometry": { "type": "Point", "coordinates": [ 80.276770000357004, 13.0412899998301 ] } },
{ "type": "Feature", "properties": { "OBJECTID": 115, "SL_NO": 0, "ZN": 9, "WARD": 0, "LAT": 13.02725, "LONG_": 80.26061, "LOCATION": "Sringeri Mutt Road", "TYPE": "Ordinary Compost" }, "geometry": { "type": "Point", "coordinates": [ 80.260610000435406, 13.027250000322301 ] } },
{ "type": "Feature", "properties": { "OBJECTID": 116, "SL_NO": 0, "ZN": 10, "WARD": 0, "LAT": 13.06645, "LONG_": 80.206955, "LOCATION": "Saf Games Village", "TYPE": "Ordinary Compost" }, "geometry": { "type": "Point", "coordinates": [ 80.206954999856904, 13.066450000218 ] } },
{ "type": "Feature", "properties": { "OBJECTID": 117, "SL_NO": 0, "ZN": 10, "WARD": 0, "LAT": 13.05444, "LONG_": 80.1872, "LOCATION": "Virugambakkam, Burial Ground (Dn 128)", "TYPE": "Ordinary Compost" }, "geometry": { "type": "Point", "coordinates": [ 80.187199999805102, 13.0544400000034 ] } },
{ "type": "Feature", "properties": { "OBJECTID": 118, "SL_NO": 0, "ZN": 10, "WARD": 0, "LAT": 13.02518, "LONG_": 80.212726, "LOCATION": "West Saidapet,Burial Ground (Dn 139)", "TYPE": "Ordinary Compost" }, "geometry": { "type": "Point", "coordinates": [ 80.212725999906993, 13.0251800003814 ] } },
{ "type": "Feature", "properties": { "OBJECTID": 119, "SL_NO": 0, "ZN": 10, "WARD": 0, "LAT": 13.03039, "LONG_": 80.229539, "LOCATION": "Kannamapet,Burial Ground (Dn 141)", "TYPE": "Ordinary Compost" }, "geometry": { "type": "Point", "coordinates": [ 80.229539000404699, 13.0303899999418 ] } },
{ "type": "Feature", "properties": { "OBJECTID": 120, "SL_NO": 0, "ZN": 10, "WARD": 0, "LAT": 13.029781, "LONG_": 80.197482, "LOCATION": "Annai Sathya Nagar Burial Ground (Dn 138)", "TYPE": "Ordinary Compost" }, "geometry": { "type": "Point", "coordinates": [ 80.197481999621004, 13.0297810002304 ] } },
{ "type": "Feature", "properties": { "OBJECTID": 121, "SL_NO": 0, "ZN": 10, "WARD": 0, "LAT": 13.027093, "LONG_": 80.22422, "LOCATION": "Reddykuppam Raod", "TYPE": "Ordinary Compost" }, "geometry": { "type": "Point", "coordinates": [ 80.224219999667099, 13.027092999785699 ] } },
{ "type": "Feature", "properties": { "OBJECTID": 122, "SL_NO": 0, "ZN": 10, "WARD": 0, "LAT": 13.024122, "LONG_": 80.224376, "LOCATION": "Jeenes Road", "TYPE": "Ordinary Compost" }, "geometry": { "type": "Point", "coordinates": [ 80.224376000349395, 13.024121999846299 ] } },
{ "type": "Feature", "properties": { "OBJECTID": 123, "SL_NO": 0, "ZN": 11, "WARD": 0, "LAT": 13.05764, "LONG_": 80.17435, "LOCATION": "Gangai Amman Koil Street", "TYPE": "Ordinary Compost" }, "geometry": { "type": "Point", "coordinates": [ 80.174349999951005, 13.057639999740299 ] } },
{ "type": "Feature", "properties": { "OBJECTID": 124, "SL_NO": 0, "ZN": 11, "WARD": 0, "LAT": 13.038204, "LONG_": 80.149313, "LOCATION": "Gandhi Nagar Burial Ground", "TYPE": "Ordinary Compost" }, "geometry": { "type": "Point", "coordinates": [ 80.149312999761094, 13.0382040000241 ] } },
{ "type": "Feature", "properties": { "OBJECTID": 125, "SL_NO": 0, "ZN": 11, "WARD": 0, "LAT": 13.038204, "LONG_": 80.149313, "LOCATION": "Alapakkam cross street - Aerobic compost (1)", "TYPE": "Ordinary Compost" }, "geometry": { "type": "Point", "coordinates": [ 80.149312999761094, 13.0382040000241 ] } },
{ "type": "Feature", "properties": { "OBJECTID": 126, "SL_NO": 0, "ZN": 11, "WARD": 0, "LAT": 13.038204, "LONG_": 80.149313, "LOCATION": "Alapakkam cross street - Aerobic compost (2)", "TYPE": "Ordinary Compost" }, "geometry": { "type": "Point", "coordinates": [ 80.149312999761094, 13.0382040000241 ] } },
{ "type": "Feature", "properties": { "OBJECTID": 127, "SL_NO": 0, "ZN": 12, "WARD": 0, "LAT": 13.023124, "LONG_": 80.158227, "LOCATION": "XS Real Appartments, Nethaji street, Rajeswari Nagar", "TYPE": "Ordinary Compost" }, "geometry": { "type": "Point", "coordinates": [ 80.158226999602803, 13.023123999680299 ] } },
{ "type": "Feature", "properties": { "OBJECTID": 128, "SL_NO": 0, "ZN": 12, "WARD": 0, "LAT": 13.02088, "LONG_": 80.18833, "LOCATION": "Nandambakkam", "TYPE": "Ordinary Compost" }, "geometry": { "type": "Point", "coordinates": [ 80.188329999815707, 13.020880000000201 ] } },
{ "type": "Feature", "properties": { "OBJECTID": 129, "SL_NO": 0, "ZN": 12, "WARD": 0, "LAT": 12.98009, "LONG_": 80.164301, "LOCATION": "GST road, Opp to Airport, Meenambakkam", "TYPE": "Ordinary Compost" }, "geometry": { "type": "Point", "coordinates": [ 80.1643009995814, 12.9800899998988 ] } },
{ "type": "Feature", "properties": { "OBJECTID": 130, "SL_NO": 0, "ZN": 12, "WARD": 0, "LAT": 12.99133, "LONG_": 80.1869, "LOCATION": "Kannan Colony Burial Ground", "TYPE": "Ordinary Compost" }, "geometry": { "type": "Point", "coordinates": [ 80.186900000417296, 12.9913299996975 ] } },
{ "type": "Feature", "properties": { "OBJECTID": 131, "SL_NO": 0, "ZN": 12, "WARD": 0, "LAT": 12.9933, "LONG_": 80.206, "LOCATION": "Balakrishna Puram Burial Ground", "TYPE": "Ordinary Compost" }, "geometry": { "type": "Point", "coordinates": [ 80.206000000424396, 12.9932999996114 ] } },
{ "type": "Feature", "properties": { "OBJECTID": 132, "SL_NO": 0, "ZN": 13, "WARD": 0, "LAT": 13.017112, "LONG_": 80.214056, "LOCATION": "Arulayammanpet Burial ground", "TYPE": "Ordinary Compost" }, "geometry": { "type": "Point", "coordinates": [ 80.214055999707298, 13.017111999569099 ] } },
{ "type": "Feature", "properties": { "OBJECTID": 133, "SL_NO": 0, "ZN": 13, "WARD": 0, "LAT": 13.0181, "LONG_": 80.2725, "LOCATION": "MRC Nagar", "TYPE": "Ordinary Compost" }, "geometry": { "type": "Point", "coordinates": [ 80.272500000067396, 13.0181000001652 ] } },
{ "type": "Feature", "properties": { "OBJECTID": 134, "SL_NO": 0, "ZN": 13, "WARD": 0, "LAT": 12.2772, "LONG_": 80.2647, "LOCATION": "Rajasrinivasapuram Burial Ground", "TYPE": "Ordinary Compost" }, "geometry": { "type": "Point", "coordinates": [ 80.264700000085597, 12.277199999677199 ] } },
{ "type": "Feature", "properties": { "OBJECTID": 135, "SL_NO": 0, "ZN": 14, "WARD": 0, "LAT": 12.959039, "LONG_": 80.232574, "LOCATION": "Veerapandiya Kattabomman Street, Perungudi.", "TYPE": "Ordinary Compost" }, "geometry": { "type": "Point", "coordinates": [ 80.232574000058705, 12.9590390002377 ] } },
{ "type": "Feature", "properties": { "OBJECTID": 136, "SL_NO": 0, "ZN": 14, "WARD": 0, "LAT": 12.9592, "LONG_": 80.2326, "LOCATION": "4th Main Road Industrial Estate", "TYPE": "Ordinary Compost" }, "geometry": { "type": "Point", "coordinates": [ 80.232599999589397, 12.9592000002123 ] } },
{ "type": "Feature", "properties": { "OBJECTID": 137, "SL_NO": 0, "ZN": 14, "WARD": 0, "LAT": 12.9598, "LONG_": 80.2136, "LOCATION": "Pallikaranai old Dumping Ground (Front side)", "TYPE": "Ordinary Compost" }, "geometry": { "type": "Point", "coordinates": [ 80.213599999826798, 12.959799999640699 ] } },
{ "type": "Feature", "properties": { "OBJECTID": 138, "SL_NO": 0, "ZN": 14, "WARD": 0, "LAT": 12.9598, "LONG_": 80.2136, "LOCATION": "Pallikaranai old Dumping Ground (Back side)", "TYPE": "Ordinary Compost" }, "geometry": { "type": "Point", "coordinates": [ 80.213599999826798, 12.959799999640699 ] } },
{ "type": "Feature", "properties": { "OBJECTID": 139, "SL_NO": 0, "ZN": 14, "WARD": 0, "LAT": 12.93089, "LONG_": 80.21478, "LOCATION": "Malligeswaran Burial Ground, Thulukaththamman koil main Road", "TYPE": "Ordinary Compost" }, "geometry": { "type": "Point", "coordinates": [ 80.214780000178706, 12.9308900002315 ] } },
{ "type": "Feature", "properties": { "OBJECTID": 140, "SL_NO": 0, "ZN": 14, "WARD": 0, "LAT": 12.91264, "LONG_": 80.19651, "LOCATION": "Pudhu Nagar Burial Ground", "TYPE": "Ordinary Compost" }, "geometry": { "type": "Point", "coordinates": [ 80.1965099996562, 12.9126400003053 ] } },
{ "type": "Feature", "properties": { "OBJECTID": 141, "SL_NO": 0, "ZN": 15, "WARD": 0, "LAT": 12.925075, "LONG_": 80.241935, "LOCATION": "Kannagi Nagar 17 th Main Road", "TYPE": "Ordinary Compost" }, "geometry": { "type": "Point", "coordinates": [ 80.241934999626594, 12.9250749999271 ] } },
{ "type": "Feature", "properties": { "OBJECTID": 142, "SL_NO": 0, "ZN": 15, "WARD": 0, "LAT": 12.916955, "LONG_": 80.238219, "LOCATION": "kuppusamy Street", "TYPE": "Ordinary Compost" }, "geometry": { "type": "Point", "coordinates": [ 80.238219000135203, 12.9169549999979 ] } },
{ "type": "Feature", "properties": { "OBJECTID": 143, "SL_NO": 0, "ZN": 15, "WARD": 0, "LAT": 12.882578, "LONG_": 80.235166, "LOCATION": "TNHB B-6 Road shollinganallur", "TYPE": "Ordinary Compost" }, "geometry": { "type": "Point", "coordinates": [ 80.235166000262296, 12.882578000020599 ] } },
{ "type": "Feature", "properties": { "OBJECTID": 144, "SL_NO": 0, "ZN": 15, "WARD": 0, "LAT": 12.4792, "LONG_": 80.2601, "LOCATION": "TNSCB 9th Avenue chemancherry", "TYPE": "Ordinary Compost" }, "geometry": { "type": "Point", "coordinates": [ 80.2601, 12.479200000103001 ] } }
]
}
