{"type":"FeatureCollection", "features":[
{"type":"Feature","geometry":{"type":"Point","coordinates":[80.3013590000449,13.1568420002684,0]},"properties":{"OBJECTID":1,"SL_NO":2,"ZN":1,"WARD":11,"LAT":13.1568,"LONG_":80.3014,"STR_NAME":"Waste to Energey plant","LOCATION":"Waste to Energey plant, opposite to Zonal Office.","TYPE":"Bio Methenation Plant"}},
{"type":"Feature","geometry":{"type":"Point","coordinates":[80.2669999997512,13.0980000000822,0]},"properties":{"OBJECTID":2,"SL_NO":35,"ZN":5,"WARD":0,"LAT":13.098,"LONG_":80.267,"STR_NAME":"Basin Elephant gate Road","LOCATION":"Basin Elephant gate Road","TYPE":"Bio Methenation Plant"}},
{"type":"Feature","geometry":{"type":"Point","coordinates":[80.150230000056,13.0998999996924,0]},"properties":{"OBJECTID":3,"SL_NO":84,"ZN":7,"WARD":86,"LAT":13.0999,"LONG_":80.1502,"STR_NAME":"Athipet Dumping Ground","LOCATION":"Athipet Dumping Ground","TYPE":"Bio Methenation Plant"}},
{"type":"Feature","geometry":{"type":"Point","coordinates":[80.2213000003672,13.0939999999194,0]},"properties":{"OBJECTID":4,"SL_NO":108,"ZN":8,"WARD":101,"LAT":13.094,"LONG_":80.2213,"STR_NAME":"Velankadu Burial Ground","LOCATION":"Velankadu Burial Ground","TYPE":"Bio Methenation Plant"}},
{"type":"Feature","geometry":{"type":"Point","coordinates":[80.2516000002505,13.089999999879,0]},"properties":{"OBJECTID":5,"SL_NO":109,"ZN":8,"WARD":104,"LAT":13.09,"LONG_":80.2516,"STR_NAME":"Otteri","LOCATION":"Otteri Burial Ground","TYPE":"Bio Methenation Plant"}},
{"type":"Feature","geometry":{"type":"Point","coordinates":[80.2640000000016,13.0990000003654,0]},"properties":{"OBJECTID":6,"SL_NO":5,"ZN":6,"WARD":72,"LAT":13.099,"LONG_":80.264,"STR_NAME":"Puliyanthope (Slaughter house)","LOCATION":"Puliyanthope (Slaughter house)","TYPE":"Bio Methenation Plant"}}
]}
