{"type":"FeatureCollection", "features":[
{"type":"Feature","geometry":{"type":"Point","coordinates":[80.266211813645,13.0993469438322]},"properties":{"OBJECTID":2,"OBJECTID_1":2,"SLUM_NAME":"Gray Nagar","WARD_NO":73,"ZONE_NO":6}},
{"type":"Feature","geometry":{"type":"Point","coordinates":[80.2681793298314,13.0973812891911]},"properties":{"OBJECTID":3,"OBJECTID_1":3,"SLUM_NAME":"Sundarapuram","WARD_NO":77,"ZONE_NO":6}},
{"type":"Feature","geometry":{"type":"Point","coordinates":[80.2663958802433,13.1075379775148]},"properties":{"OBJECTID":4,"OBJECTID_1":4,"SLUM_NAME":"Kasturibai Colony A Block","WARD_NO":72,"ZONE_NO":6}},
{"type":"Feature","geometry":{"type":"Point","coordinates":[80.2659264557101,13.1077186377596]},"properties":{"OBJECTID":5,"OBJECTID_1":5,"SLUM_NAME":"New Thiru Vi Ka Nagar","WARD_NO":72,"ZONE_NO":6}},
{"type":"Feature","geometry":{"type":"Point","coordinates":[80.2646497727233,13.1068092991823]},"properties":{"OBJECTID":6,"OBJECTID_1":6,"SLUM_NAME":"Sathyavani Muthu Nagar","WARD_NO":72,"ZONE_NO":6}},
{"type":"Feature","geometry":{"type":"Point","coordinates":[80.2634539057727,13.1064700915647]},"properties":{"OBJECTID":7,"OBJECTID_1":7,"SLUM_NAME":"KalvaiKarai","WARD_NO":72,"ZONE_NO":6}},
{"type":"Feature","geometry":{"type":"Point","coordinates":[80.2672664259071,13.1060781549289]},"properties":{"OBJECTID":8,"OBJECTID_1":8,"SLUM_NAME":"Vasuki Nagar","WARD_NO":72,"ZONE_NO":6}},
{"type":"Feature","geometry":{"type":"Point","coordinates":[80.2618932967655,13.1062344218573]},"properties":{"OBJECTID":9,"OBJECTID_1":9,"SLUM_NAME":"V.O.C Nagar","WARD_NO":72,"ZONE_NO":6}},
{"type":"Feature","geometry":{"type":"Point","coordinates":[80.2630745400417,13.1037470521036]},"properties":{"OBJECTID":10,"OBJECTID_1":10,"SLUM_NAME":"J Jayalalitha Nagar","WARD_NO":72,"ZONE_NO":6}},
{"type":"Feature","geometry":{"type":"Point","coordinates":[80.2319809231437,13.1219892440003]},"properties":{"OBJECTID":11,"OBJECTID_1":11,"SLUM_NAME":"Kamarajar Nagar","WARD_NO":66,"ZONE_NO":6}},
{"type":"Feature","geometry":{"type":"Point","coordinates":[80.2319527411966,13.1210634722769]},"properties":{"OBJECTID":12,"OBJECTID_1":12,"SLUM_NAME":"Gandhi Nagar","WARD_NO":66,"ZONE_NO":6}},
{"type":"Feature","geometry":{"type":"Point","coordinates":[80.2304331699266,13.1183872443031]},"properties":{"OBJECTID":13,"OBJECTID_1":13,"SLUM_NAME":"K C Garden","WARD_NO":66,"ZONE_NO":6}},
{"type":"Feature","geometry":{"type":"Point","coordinates":[80.2379025734792,13.1170774601512]},"properties":{"OBJECTID":14,"OBJECTID_1":14,"SLUM_NAME":"Jai beem Nagar","WARD_NO":68,"ZONE_NO":6}},
{"type":"Feature","geometry":{"type":"Point","coordinates":[80.2635437624539,13.1073725790903]},"properties":{"OBJECTID":15,"OBJECTID_1":15,"SLUM_NAME":"Venkatesapuram New Colony","WARD_NO":72,"ZONE_NO":6}},
{"type":"Feature","geometry":{"type":"Point","coordinates":[80.2676117499804,13.1022283540261]},"properties":{"OBJECTID":16,"OBJECTID_1":16,"SLUM_NAME":"Nagathamman Line","WARD_NO":72,"ZONE_NO":6}},
{"type":"Feature","geometry":{"type":"Point","coordinates":[80.2459005897624,13.1041590194334]},"properties":{"OBJECTID":17,"OBJECTID_1":17,"SLUM_NAME":"Sastri Nagar","WARD_NO":71,"ZONE_NO":6}},
{"type":"Feature","geometry":{"type":"Point","coordinates":[80.2449097444107,13.1045217358766]},"properties":{"OBJECTID":18,"OBJECTID_1":18,"SLUM_NAME":"Ekangipuram","WARD_NO":71,"ZONE_NO":6}},
{"type":"Feature","geometry":{"type":"Point","coordinates":[80.2477323588313,13.102662848046]},"properties":{"OBJECTID":19,"OBJECTID_1":19,"SLUM_NAME":"New Vazhaima Nagar","WARD_NO":71,"ZONE_NO":6}},
{"type":"Feature","geometry":{"type":"Point","coordinates":[80.2522546118205,13.0990079892884]},"properties":{"OBJECTID":20,"OBJECTID_1":20,"SLUM_NAME":"Old Vazhaima Nagar","WARD_NO":73,"ZONE_NO":6}},
{"type":"Feature","geometry":{"type":"Point","coordinates":[80.2444562748553,13.110562778948]},"properties":{"OBJECTID":21,"OBJECTID_1":21,"SLUM_NAME":"Agaram - Kannapiraan Kovil Street","WARD_NO":70,"ZONE_NO":6}},
{"type":"Feature","geometry":{"type":"Point","coordinates":[80.2459184006595,13.1065116115037]},"properties":{"OBJECTID":22,"OBJECTID_1":22,"SLUM_NAME":"Adhisesha Nagar","WARD_NO":71,"ZONE_NO":6}},
{"type":"Feature","geometry":{"type":"Point","coordinates":[80.2491031331576,13.0999433213388]},"properties":{"OBJECTID":23,"OBJECTID_1":23,"SLUM_NAME":"Brisely Nagar","WARD_NO":71,"ZONE_NO":6}},
{"type":"Feature","geometry":{"type":"Point","coordinates":[80.2462210098411,13.1026525256448]},"properties":{"OBJECTID":24,"OBJECTID_1":24,"SLUM_NAME":"Nehruji Jothi Nagar","WARD_NO":71,"ZONE_NO":6}},
{"type":"Feature","geometry":{"type":"Point","coordinates":[80.2433012992164,13.105957573116]},"properties":{"OBJECTID":25,"OBJECTID_1":25,"SLUM_NAME":"RajivGandhi Nagar","WARD_NO":71,"ZONE_NO":6}},
{"type":"Feature","geometry":{"type":"Point","coordinates":[80.2448763360653,13.1062039739267]},"properties":{"OBJECTID":26,"OBJECTID_1":26,"SLUM_NAME":"Semathamman Colony","WARD_NO":71,"ZONE_NO":6}},
{"type":"Feature","geometry":{"type":"Point","coordinates":[80.2583205747097,13.0992833776963]},"properties":{"OBJECTID":27,"OBJECTID_1":27,"SLUM_NAME":"Pensioners Lane","WARD_NO":73,"ZONE_NO":6}},
{"type":"Feature","geometry":{"type":"Point","coordinates":[80.2664874302489,13.1048109593576]},"properties":{"OBJECTID":28,"OBJECTID_1":28,"SLUM_NAME":"Narasimman Nagar","WARD_NO":72,"ZONE_NO":6}},
{"type":"Feature","geometry":{"type":"Point","coordinates":[80.2618907581266,13.1023134452875]},"properties":{"OBJECTID":29,"OBJECTID_1":29,"SLUM_NAME":"Padison Puram Lane","WARD_NO":73,"ZONE_NO":6}},
{"type":"Feature","geometry":{"type":"Point","coordinates":[80.2665075363416,13.0969070526933]},"properties":{"OBJECTID":30,"OBJECTID_1":30,"SLUM_NAME":"Asirvathapuram","WARD_NO":77,"ZONE_NO":6}},
{"type":"Feature","geometry":{"type":"Point","coordinates":[80.2651192924779,13.0969362733463]},"properties":{"OBJECTID":31,"OBJECTID_1":31,"SLUM_NAME":"Raja Garden (Thottam)","WARD_NO":77,"ZONE_NO":6}},
{"type":"Feature","geometry":{"type":"Point","coordinates":[80.267408687607,13.0969509794782]},"properties":{"OBJECTID":32,"OBJECTID_1":32,"SLUM_NAME":"Sivarajapuram","WARD_NO":77,"ZONE_NO":6}},
{"type":"Feature","geometry":{"type":"Point","coordinates":[80.2655868458204,13.0958308829513]},"properties":{"OBJECTID":33,"OBJECTID_1":33,"SLUM_NAME":"Kumarasamy Rajapuram","WARD_NO":77,"ZONE_NO":6}},
{"type":"Feature","geometry":{"type":"Point","coordinates":[80.235879617765,13.1223178374317]},"properties":{"OBJECTID":34,"OBJECTID_1":34,"SLUM_NAME":"Apparao Garden","WARD_NO":68,"ZONE_NO":6}},
{"type":"Feature","geometry":{"type":"Point","coordinates":[80.2397188079819,13.1178989234501]},"properties":{"OBJECTID":35,"OBJECTID_1":35,"SLUM_NAME":"Ambedkar Nagar Backside","WARD_NO":69,"ZONE_NO":6}},
{"type":"Feature","geometry":{"type":"Point","coordinates":[80.2387558175906,13.1182196572436]},"properties":{"OBJECTID":36,"OBJECTID_1":36,"SLUM_NAME":"Maduraisamy Madam","WARD_NO":68,"ZONE_NO":6}},
{"type":"Feature","geometry":{"type":"Point","coordinates":[80.2356408635288,13.1177422614897]},"properties":{"OBJECTID":37,"OBJECTID_1":37,"SLUM_NAME":"MalliPoo Colony","WARD_NO":68,"ZONE_NO":6}},
{"type":"Feature","geometry":{"type":"Point","coordinates":[80.239260983394,13.1215136682787]},"properties":{"OBJECTID":38,"OBJECTID_1":38,"SLUM_NAME":"Poonusamy Nagar","WARD_NO":68,"ZONE_NO":6}},
{"type":"Feature","geometry":{"type":"Point","coordinates":[80.2364918573604,13.1157934544013]},"properties":{"OBJECTID":39,"OBJECTID_1":39,"SLUM_NAME":"ThillaiNayagam Pillai Street","WARD_NO":68,"ZONE_NO":6}},
{"type":"Feature","geometry":{"type":"Point","coordinates":[80.2426185975668,13.1238382530359]},"properties":{"OBJECTID":40,"OBJECTID_1":40,"SLUM_NAME":"Kollan Thottam","WARD_NO":69,"ZONE_NO":6}},
{"type":"Feature","geometry":{"type":"Point","coordinates":[80.2432000240496,13.1162103647531]},"properties":{"OBJECTID":41,"OBJECTID_1":41,"SLUM_NAME":"Lakshmi Amman Koil Street","WARD_NO":69,"ZONE_NO":6}},
{"type":"Feature","geometry":{"type":"Point","coordinates":[80.2364845801083,13.1000958439311]},"properties":{"OBJECTID":42,"OBJECTID_1":42,"SLUM_NAME":"Madurai Pillai Street","WARD_NO":69,"ZONE_NO":6}},
{"type":"Feature","geometry":{"type":"Point","coordinates":[80.2424106375785,13.1013753180823]},"properties":{"OBJECTID":43,"OBJECTID_1":43,"SLUM_NAME":"Ponnuvel Puram","WARD_NO":69,"ZONE_NO":6}},
{"type":"Feature","geometry":{"type":"Point","coordinates":[80.2424104695936,13.1043861466409]},"properties":{"OBJECTID":44,"OBJECTID_1":44,"SLUM_NAME":"Thikkakulam","WARD_NO":69,"ZONE_NO":6}},
{"type":"Feature","geometry":{"type":"Point","coordinates":[80.2379714248542,13.1002944108388]},"properties":{"OBJECTID":45,"OBJECTID_1":45,"SLUM_NAME":"Vasantha Garden","WARD_NO":69,"ZONE_NO":6}},
{"type":"Feature","geometry":{"type":"Point","coordinates":[80.2338224577981,13.1114364183631]},"properties":{"OBJECTID":46,"OBJECTID_1":46,"SLUM_NAME":"Parthasarathy Street","WARD_NO":67,"ZONE_NO":6}},
{"type":"Feature","geometry":{"type":"Point","coordinates":[80.2644274702332,13.0974035189635]},"properties":{"OBJECTID":47,"OBJECTID_1":47,"SLUM_NAME":"Ansari Street","WARD_NO":77,"ZONE_NO":6}},
{"type":"Feature","geometry":{"type":"Point","coordinates":[80.2598113711446,13.0946419126363]},"properties":{"OBJECTID":48,"OBJECTID_1":48,"SLUM_NAME":"Corporation Colony","WARD_NO":76,"ZONE_NO":6}},
{"type":"Feature","geometry":{"type":"Point","coordinates":[80.2457276694601,13.0929049900485]},"properties":{"OBJECTID":49,"OBJECTID_1":49,"SLUM_NAME":"Sivagamipuram","WARD_NO":74,"ZONE_NO":6}},
{"type":"Feature","geometry":{"type":"Point","coordinates":[80.2078045692921,13.1203617317451]},"properties":{"OBJECTID":50,"OBJECTID_1":50,"SLUM_NAME":"Makkaram Thottam","WARD_NO":65,"ZONE_NO":6}},
{"type":"Feature","geometry":{"type":"Point","coordinates":[80.2120394404422,13.1146866745209]},"properties":{"OBJECTID":51,"OBJECTID_1":51,"SLUM_NAME":"Silanthikuttai Slum","WARD_NO":65,"ZONE_NO":6}},
{"type":"Feature","geometry":{"type":"Point","coordinates":[80.2195833322981,13.1255404078178]},"properties":{"OBJECTID":52,"OBJECTID_1":52,"SLUM_NAME":"Siva Parvathi Nagar","WARD_NO":64,"ZONE_NO":6}},
{"type":"Feature","geometry":{"type":"Point","coordinates":[80.2093236402005,13.1284604107516]},"properties":{"OBJECTID":53,"OBJECTID_1":53,"SLUM_NAME":"Thiruvalluvar Nagar","WARD_NO":64,"ZONE_NO":6}},
{"type":"Feature","geometry":{"type":"Point","coordinates":[80.2111941042002,13.1221885937322]},"properties":{"OBJECTID":54,"OBJECTID_1":54,"SLUM_NAME":"Varadhan Kuttai","WARD_NO":64,"ZONE_NO":6}},
{"type":"Feature","geometry":{"type":"Point","coordinates":[80.2491779412612,13.0946808586985]},"properties":{"OBJECTID":55,"OBJECTID_1":55,"SLUM_NAME":"Sathyavani Muthu Nagar","WARD_NO":74,"ZONE_NO":6}},
{"type":"Feature","geometry":{"type":"Point","coordinates":[80.2402280377636,13.1178535603619]},"properties":{"OBJECTID":56,"OBJECTID_1":57,"SLUM_NAME":"Jamaliyan Line Backside","WARD_NO":69,"ZONE_NO":6}},
{"type":"Feature","geometry":{"type":"Point","coordinates":[80.2359266068409,13.1228850274204]},"properties":{"OBJECTID":57,"OBJECTID_1":58,"SLUM_NAME":"Othavadai - Street & Lane","WARD_NO":68,"ZONE_NO":6}},
{"type":"Feature","geometry":{"type":"Point","coordinates":[80.2127535157531,13.1242456663567]},"properties":{"OBJECTID":58,"OBJECTID_1":59,"SLUM_NAME":"MGR Nagar","WARD_NO":64,"ZONE_NO":6}},
{"type":"Feature","geometry":{"type":"Point","coordinates":[80.260458149166,13.1104083476851]},"properties":{"OBJECTID":59,"OBJECTID_1":1113,"SLUM_NAME":"Mayor Krishna Moorthy nagar","WARD_NO":45,"ZONE_NO":4}},
{"type":"Feature","geometry":{"type":"Point","coordinates":[80.3060666186606,13.1639657138174]},"properties":{"OBJECTID":60,"OBJECTID_1":1114,"SLUM_NAME":"Narayanasamy Nagar","WARD_NO":9,"ZONE_NO":1}},
{"type":"Feature","geometry":{"type":"Point","coordinates":[80.2567013694949,13.0949217655749]},"properties":{"OBJECTID":61,"OBJECTID_1":60,"SLUM_NAME":"Sachidananpuram Street","WARD_NO":76,"ZONE_NO":6}},
{"type":"Feature","geometry":{"type":"Point","coordinates":[80.2607359441844,13.0941543513746]},"properties":{"OBJECTID":62,"OBJECTID_1":61,"SLUM_NAME":"K.M. Garden","WARD_NO":76,"ZONE_NO":6}},
{"type":"Feature","geometry":{"type":"Point","coordinates":[80.2639754649317,13.1031623080819]},"properties":{"OBJECTID":63,"OBJECTID_1":62,"SLUM_NAME":"Ambedkar Nagar","WARD_NO":72,"ZONE_NO":6}},
{"type":"Feature","geometry":{"type":"Point","coordinates":[80.2568319557912,13.0942083249193]},"properties":{"OBJECTID":64,"OBJECTID_1":63,"SLUM_NAME":"Sachidanandam Slum","WARD_NO":78,"ZONE_NO":6}},
{"type":"Feature","geometry":{"type":"Point","coordinates":[80.2642777866524,13.1025172276057]},"properties":{"OBJECTID":65,"OBJECTID_1":64,"SLUM_NAME":"Nehru Nagar","WARD_NO":72,"ZONE_NO":6}},
{"type":"Feature","geometry":{"type":"Point","coordinates":[80.2651696619142,13.1031936041922]},"properties":{"OBJECTID":66,"OBJECTID_1":65,"SLUM_NAME":"Sastri Nagar","WARD_NO":72,"ZONE_NO":6}},
{"type":"Feature","geometry":{"type":"Point","coordinates":[80.2322301238884,13.1252446184876]},"properties":{"OBJECTID":67,"OBJECTID_1":66,"SLUM_NAME":"Gopalapuram","WARD_NO":68,"ZONE_NO":6}},
{"type":"Feature","geometry":{"type":"Point","coordinates":[80.2357761021999,13.1141995029197]},"properties":{"OBJECTID":68,"OBJECTID_1":67,"SLUM_NAME":"Thidith Thottam","WARD_NO":68,"ZONE_NO":6}},
{"type":"Feature","geometry":{"type":"Point","coordinates":[80.2024359155573,13.0623761736527]},"properties":{"OBJECTID":69,"OBJECTID_1":68,"SLUM_NAME":"Kulasekarapuram","WARD_NO":127,"ZONE_NO":10}},
{"type":"Feature","geometry":{"type":"Point","coordinates":[80.1929552981697,13.0613342209052]},"properties":{"OBJECTID":70,"OBJECTID_1":69,"SLUM_NAME":"Vedha Nagar","WARD_NO":127,"ZONE_NO":10}},
{"type":"Feature","geometry":{"type":"Point","coordinates":[80.2457213255576,13.0968318219861]},"properties":{"OBJECTID":71,"OBJECTID_1":70,"SLUM_NAME":"Kohnur High Road","WARD_NO":74,"ZONE_NO":6}},
{"type":"Feature","geometry":{"type":"Point","coordinates":[80.2479798581668,13.1039869885692]},"properties":{"OBJECTID":72,"OBJECTID_1":71,"SLUM_NAME":"Krishnadoss Road","WARD_NO":71,"ZONE_NO":6}},
{"type":"Feature","geometry":{"type":"Point","coordinates":[80.2471607733924,13.0999295550687]},"properties":{"OBJECTID":73,"OBJECTID_1":72,"SLUM_NAME":"Old Tank Bund Road","WARD_NO":71,"ZONE_NO":6}},
{"type":"Feature","geometry":{"type":"Point","coordinates":[80.2549815942909,13.1072339257345]},"properties":{"OBJECTID":74,"OBJECTID_1":73,"SLUM_NAME":"Arunthathi Nagar II","WARD_NO":70,"ZONE_NO":6}},
{"type":"Feature","geometry":{"type":"Point","coordinates":[80.2462802429543,13.0902951453474]},"properties":{"OBJECTID":75,"OBJECTID_1":74,"SLUM_NAME":"Varadhambal Thottam","WARD_NO":74,"ZONE_NO":6}},
{"type":"Feature","geometry":{"type":"Point","coordinates":[80.2311475470715,13.1082155170548]},"properties":{"OBJECTID":76,"OBJECTID_1":75,"SLUM_NAME":"Loco Works","WARD_NO":67,"ZONE_NO":6}},
{"type":"Feature","geometry":{"type":"Point","coordinates":[80.265503234227,13.0980279466498]},"properties":{"OBJECTID":77,"OBJECTID_1":76,"SLUM_NAME":"Pulianthoppu","WARD_NO":77,"ZONE_NO":6}},
{"type":"Feature","geometry":{"type":"Point","coordinates":[80.265997435194,13.0974491071834]},"properties":{"OBJECTID":78,"OBJECTID_1":77,"SLUM_NAME":"Gurusamy Nagar","WARD_NO":77,"ZONE_NO":6}},
{"type":"Feature","geometry":{"type":"Point","coordinates":[80.2569441661499,13.0962878088727]},"properties":{"OBJECTID":79,"OBJECTID_1":78,"SLUM_NAME":"Ramanujam Garden","WARD_NO":76,"ZONE_NO":6}},
{"type":"Feature","geometry":{"type":"Point","coordinates":[80.2525637984666,13.0915575446749]},"properties":{"OBJECTID":80,"OBJECTID_1":79,"SLUM_NAME":"Venkatammal Samathi","WARD_NO":75,"ZONE_NO":6}},
{"type":"Feature","geometry":{"type":"Point","coordinates":[80.2636297491929,13.097341649723]},"properties":{"OBJECTID":81,"OBJECTID_1":81,"SLUM_NAME":"Kanagaraya Garden (Thottam)","WARD_NO":77,"ZONE_NO":6}},
{"type":"Feature","geometry":{"type":"Point","coordinates":[80.2711659110458,13.1290569136278]},"properties":{"OBJECTID":82,"OBJECTID_1":82,"SLUM_NAME":"Ezil nagar","WARD_NO":41,"ZONE_NO":4}},
{"type":"Feature","geometry":{"type":"Point","coordinates":[80.2661818476438,13.1004122411274]},"properties":{"OBJECTID":83,"OBJECTID_1":84,"SLUM_NAME":"Ponnappan Street","WARD_NO":73,"ZONE_NO":6}},
{"type":"Feature","geometry":{"type":"Point","coordinates":[80.234785700616,13.1099930600657]},"properties":{"OBJECTID":84,"OBJECTID_1":86,"SLUM_NAME":"Somaramasamy Street","WARD_NO":67,"ZONE_NO":6}},
{"type":"Feature","geometry":{"type":"Point","coordinates":[80.2350236077409,13.1114353019947]},"properties":{"OBJECTID":85,"OBJECTID_1":87,"SLUM_NAME":"Agaram - Chengalvarayan Street","WARD_NO":67,"ZONE_NO":6}},
{"type":"Feature","geometry":{"type":"Point","coordinates":[80.2338081593137,13.1097467330416]},"properties":{"OBJECTID":86,"OBJECTID_1":88,"SLUM_NAME":"Agaram - Thuluganathamman Kovil Street","WARD_NO":67,"ZONE_NO":6}},
{"type":"Feature","geometry":{"type":"Point","coordinates":[80.2334107042078,13.1121686385615]},"properties":{"OBJECTID":87,"OBJECTID_1":89,"SLUM_NAME":"Agaram - Jagannanthan Street","WARD_NO":67,"ZONE_NO":6}},
{"type":"Feature","geometry":{"type":"Point","coordinates":[80.2525790285039,13.0981356689187]},"properties":{"OBJECTID":88,"OBJECTID_1":90,"SLUM_NAME":"Strans - First Lane","WARD_NO":73,"ZONE_NO":6}},
{"type":"Feature","geometry":{"type":"Point","coordinates":[80.2525967828072,13.0919711878331]},"properties":{"OBJECTID":89,"OBJECTID_1":91,"SLUM_NAME":"Ponniyamman Kovil Street","WARD_NO":75,"ZONE_NO":6}},
{"type":"Feature","geometry":{"type":"Point","coordinates":[80.2366433914707,13.110507416148]},"properties":{"OBJECTID":90,"OBJECTID_1":92,"SLUM_NAME":"Market Street","WARD_NO":67,"ZONE_NO":6}},
{"type":"Feature","geometry":{"type":"Point","coordinates":[80.2510876257062,13.0975806632383]},"properties":{"OBJECTID":91,"OBJECTID_1":93,"SLUM_NAME":"Briklin Road","WARD_NO":75,"ZONE_NO":6}},
{"type":"Feature","geometry":{"type":"Point","coordinates":[80.2534722332724,13.0994333686224]},"properties":{"OBJECTID":92,"OBJECTID_1":94,"SLUM_NAME":"New Farance Street","WARD_NO":73,"ZONE_NO":6}},
{"type":"Feature","geometry":{"type":"Point","coordinates":[80.2467344176872,13.1025525012226]},"properties":{"OBJECTID":93,"OBJECTID_1":95,"SLUM_NAME":"New Tank Bund Road","WARD_NO":71,"ZONE_NO":6}},
{"type":"Feature","geometry":{"type":"Point","coordinates":[80.254437714692,13.1080782229073]},"properties":{"OBJECTID":94,"OBJECTID_1":96,"SLUM_NAME":"Poleriamman Koil Street","WARD_NO":70,"ZONE_NO":6}},
{"type":"Feature","geometry":{"type":"Point","coordinates":[80.2539118535011,13.1076607248311]},"properties":{"OBJECTID":95,"OBJECTID_1":97,"SLUM_NAME":"Arunthathi Nagar I","WARD_NO":70,"ZONE_NO":6}},
{"type":"Feature","geometry":{"type":"Point","coordinates":[80.3073062335655,13.1631538892013]},"properties":{"OBJECTID":96,"OBJECTID_1":1115,"SLUM_NAME":"Pattinathar Koil","WARD_NO":9,"ZONE_NO":1}},
{"type":"Feature","geometry":{"type":"Point","coordinates":[80.3062968433931,13.1596822599735]},"properties":{"OBJECTID":97,"OBJECTID_1":1116,"SLUM_NAME":"Appar Nagar","WARD_NO":9,"ZONE_NO":1}},
{"type":"Feature","geometry":{"type":"Point","coordinates":[80.3067998370702,13.1613538886179]},"properties":{"OBJECTID":98,"OBJECTID_1":1117,"SLUM_NAME":"Thulukkanathamman Koil","WARD_NO":9,"ZONE_NO":1}},
{"type":"Feature","geometry":{"type":"Point","coordinates":[80.306156598411,13.1589301974341]},"properties":{"OBJECTID":99,"OBJECTID_1":1118,"SLUM_NAME":"Kanni Koil Street","WARD_NO":9,"ZONE_NO":1}},
{"type":"Feature","geometry":{"type":"Point","coordinates":[80.2536823447258,13.1070165949265]},"properties":{"OBJECTID":100,"OBJECTID_1":98,"SLUM_NAME":"Govindhapuram","WARD_NO":70,"ZONE_NO":6}},
{"type":"Feature","geometry":{"type":"Point","coordinates":[80.217615948164,13.0975489280665]},"properties":{"OBJECTID":101,"OBJECTID_1":100,"SLUM_NAME":"Kakkanji Nagar","WARD_NO":96,"ZONE_NO":8}},
{"type":"Feature","geometry":{"type":"Point","coordinates":[80.240596668627,13.0852237039914]},"properties":{"OBJECTID":102,"OBJECTID_1":102,"SLUM_NAME":"Samidosspuram","WARD_NO":98,"ZONE_NO":8}},
{"type":"Feature","geometry":{"type":"Point","coordinates":[80.2052478804502,13.1044540589451]},"properties":{"OBJECTID":103,"OBJECTID_1":103,"SLUM_NAME":"Agastheeswar Koil Street","WARD_NO":94,"ZONE_NO":8}},
{"type":"Feature","geometry":{"type":"Point","coordinates":[80.2131353132236,13.1080037760328]},"properties":{"OBJECTID":104,"OBJECTID_1":104,"SLUM_NAME":"Karukku ThoppuÂ ","WARD_NO":95,"ZONE_NO":8}},
{"type":"Feature","geometry":{"type":"Point","coordinates":[80.2055092201293,13.1143744723858]},"properties":{"OBJECTID":105,"OBJECTID_1":105,"SLUM_NAME":"Rajamangalam","WARD_NO":94,"ZONE_NO":8}},
{"type":"Feature","geometry":{"type":"Point","coordinates":[80.1965527535402,13.1077968109612]},"properties":{"OBJECTID":106,"OBJECTID_1":106,"SLUM_NAME":"Valliyammal Nagar","WARD_NO":94,"ZONE_NO":8}},
{"type":"Feature","geometry":{"type":"Point","coordinates":[80.1967128602733,13.1030696629979]},"properties":{"OBJECTID":107,"OBJECTID_1":107,"SLUM_NAME":"Annai Sathya Nagar","WARD_NO":94,"ZONE_NO":8}},
{"type":"Feature","geometry":{"type":"Point","coordinates":[80.2512401758112,13.0881863593745]},"properties":{"OBJECTID":108,"OBJECTID_1":108,"SLUM_NAME":"Salaima Nagar","WARD_NO":104,"ZONE_NO":8}},
{"type":"Feature","geometry":{"type":"Point","coordinates":[80.1983209784809,13.1090570846545]},"properties":{"OBJECTID":109,"OBJECTID_1":109,"SLUM_NAME":"Amman Kuttai(63)","WARD_NO":94,"ZONE_NO":8}},
{"type":"Feature","geometry":{"type":"Point","coordinates":[80.1977976146064,13.1081209691969]},"properties":{"OBJECTID":110,"OBJECTID_1":110,"SLUM_NAME":"Balaramapuram","WARD_NO":94,"ZONE_NO":8}},
{"type":"Feature","geometry":{"type":"Point","coordinates":[80.2013122569859,13.1044648248559]},"properties":{"OBJECTID":111,"OBJECTID_1":111,"SLUM_NAME":"Bharathi Nagar","WARD_NO":94,"ZONE_NO":8}},
{"type":"Feature","geometry":{"type":"Point","coordinates":[80.2505325414209,13.089494488694]},"properties":{"OBJECTID":112,"OBJECTID_1":112,"SLUM_NAME":"Thideer Nagar","WARD_NO":104,"ZONE_NO":8}},
{"type":"Feature","geometry":{"type":"Point","coordinates":[80.2176529704318,13.097280607292]},"properties":{"OBJECTID":113,"OBJECTID_1":113,"SLUM_NAME":"Gandhi Nagar","WARD_NO":96,"ZONE_NO":8}},
{"type":"Feature","geometry":{"type":"Point","coordinates":[80.2343396556364,13.0936992842851]},"properties":{"OBJECTID":114,"OBJECTID_1":114,"SLUM_NAME":"Pudu Nagar","WARD_NO":98,"ZONE_NO":8}},
{"type":"Feature","geometry":{"type":"Point","coordinates":[80.2308976842685,13.0797051766908]},"properties":{"OBJECTID":115,"OBJECTID_1":115,"SLUM_NAME":"Parameswaran Nagar","WARD_NO":103,"ZONE_NO":8}},
{"type":"Feature","geometry":{"type":"Point","coordinates":[80.2338526825141,13.0797554302348]},"properties":{"OBJECTID":116,"OBJECTID_1":116,"SLUM_NAME":"Temple Street","WARD_NO":103,"ZONE_NO":8}},
{"type":"Feature","geometry":{"type":"Point","coordinates":[80.2298472770202,13.0682826520444]},"properties":{"OBJECTID":117,"OBJECTID_1":117,"SLUM_NAME":"Apparao Garden","WARD_NO":107,"ZONE_NO":8}},
{"type":"Feature","geometry":{"type":"Point","coordinates":[80.2207126152215,13.068379492067]},"properties":{"OBJECTID":118,"OBJECTID_1":118,"SLUM_NAME":"Indira Gandhi Nagar","WARD_NO":106,"ZONE_NO":8}},
{"type":"Feature","geometry":{"type":"Point","coordinates":[80.2261988674101,13.0717391185086]},"properties":{"OBJECTID":119,"OBJECTID_1":119,"SLUM_NAME":"Kakkan Nagar","WARD_NO":106,"ZONE_NO":8}},
{"type":"Feature","geometry":{"type":"Point","coordinates":[80.2218199945234,13.0678192303409]},"properties":{"OBJECTID":120,"OBJECTID_1":120,"SLUM_NAME":"Muthilandi Colony","WARD_NO":106,"ZONE_NO":8}},
{"type":"Feature","geometry":{"type":"Point","coordinates":[80.2085850705267,13.061192317001]},"properties":{"OBJECTID":121,"OBJECTID_1":121,"SLUM_NAME":"Thirukkumarapuram","WARD_NO":105,"ZONE_NO":8}},
{"type":"Feature","geometry":{"type":"Point","coordinates":[80.2189117104692,13.0679928886681]},"properties":{"OBJECTID":122,"OBJECTID_1":122,"SLUM_NAME":"Azad Nagar","WARD_NO":108,"ZONE_NO":8}},
{"type":"Feature","geometry":{"type":"Point","coordinates":[80.2323241882784,13.0795688492883]},"properties":{"OBJECTID":123,"OBJECTID_1":123,"SLUM_NAME":"Alex Road Kamarajar Nagar","WARD_NO":103,"ZONE_NO":8}},
{"type":"Feature","geometry":{"type":"Point","coordinates":[80.2303773800559,13.0793087069146]},"properties":{"OBJECTID":124,"OBJECTID_1":124,"SLUM_NAME":"T.B Chatthiram","WARD_NO":103,"ZONE_NO":8}},
{"type":"Feature","geometry":{"type":"Point","coordinates":[80.244948320764,13.0752286151473]},"properties":{"OBJECTID":125,"OBJECTID_1":125,"SLUM_NAME":"Osangulam V.P Singh Nagar","WARD_NO":104,"ZONE_NO":8}},
{"type":"Feature","geometry":{"type":"Point","coordinates":[80.2494755899458,13.0771450543018]},"properties":{"OBJECTID":126,"OBJECTID_1":126,"SLUM_NAME":"Sastri Nagar","WARD_NO":104,"ZONE_NO":8}},
{"type":"Feature","geometry":{"type":"Point","coordinates":[80.1975678165736,13.0844309906721]},"properties":{"OBJECTID":127,"OBJECTID_1":127,"SLUM_NAME":"Thillayadi Valliyammal Nagar","WARD_NO":99,"ZONE_NO":8}},
{"type":"Feature","geometry":{"type":"Point","coordinates":[80.2521314941175,13.0777470471444]},"properties":{"OBJECTID":128,"OBJECTID_1":128,"SLUM_NAME":"Nehru Poonga Gudisai Pagudhi","WARD_NO":104,"ZONE_NO":8}},
{"type":"Feature","geometry":{"type":"Point","coordinates":[80.2307902798965,13.0915512624083]},"properties":{"OBJECTID":129,"OBJECTID_1":129,"SLUM_NAME":"Solai 3rd Street","WARD_NO":97,"ZONE_NO":8}},
{"type":"Feature","geometry":{"type":"Point","coordinates":[80.2054324977158,13.1027858908945]},"properties":{"OBJECTID":130,"OBJECTID_1":130,"SLUM_NAME":"Thiruvenkadaiah Street\n","WARD_NO":95,"ZONE_NO":8}},
{"type":"Feature","geometry":{"type":"Point","coordinates":[80.2243268942407,13.0719994981246]},"properties":{"OBJECTID":131,"OBJECTID_1":131,"SLUM_NAME":"Nallamuthu Mariyamman Kovil Street","WARD_NO":106,"ZONE_NO":8}},
{"type":"Feature","geometry":{"type":"Point","coordinates":[80.2008845223667,13.1091302363508]},"properties":{"OBJECTID":132,"OBJECTID_1":132,"SLUM_NAME":"Nehru Nagar","WARD_NO":94,"ZONE_NO":8}},
{"type":"Feature","geometry":{"type":"Point","coordinates":[80.2382040121559,13.093896708404]},"properties":{"OBJECTID":133,"OBJECTID_1":133,"SLUM_NAME":"Thiruvalluvar Nagar","WARD_NO":98,"ZONE_NO":8}},
{"type":"Feature","geometry":{"type":"Point","coordinates":[80.2002006178729,13.0792113461749]},"properties":{"OBJECTID":134,"OBJECTID_1":135,"SLUM_NAME":"Old Thirumangalam","WARD_NO":99,"ZONE_NO":8}},
{"type":"Feature","geometry":{"type":"Point","coordinates":[80.2290100363957,13.0689378186659]},"properties":{"OBJECTID":135,"OBJECTID_1":137,"SLUM_NAME":"Avvaipuram","WARD_NO":106,"ZONE_NO":8}},
{"type":"Feature","geometry":{"type":"Point","coordinates":[80.2269707609877,13.0911123240656]},"properties":{"OBJECTID":136,"OBJECTID_1":138,"SLUM_NAME":"Kumaran Nagar","WARD_NO":102,"ZONE_NO":8}},
{"type":"Feature","geometry":{"type":"Point","coordinates":[80.2526504670269,13.0908736087635]},"properties":{"OBJECTID":137,"OBJECTID_1":139,"SLUM_NAME":"Ponnan Street","WARD_NO":104,"ZONE_NO":8}},
{"type":"Feature","geometry":{"type":"Point","coordinates":[80.1957823781155,13.0789805364575]},"properties":{"OBJECTID":138,"OBJECTID_1":140,"SLUM_NAME":"Satya sai Nagar New 1","WARD_NO":99,"ZONE_NO":8}},
{"type":"Feature","geometry":{"type":"Point","coordinates":[80.2030982038904,13.0755821566738]},"properties":{"OBJECTID":139,"OBJECTID_1":141,"SLUM_NAME":"Padavattamman Koil Street","WARD_NO":105,"ZONE_NO":8}},
{"type":"Feature","geometry":{"type":"Point","coordinates":[80.2218918759158,13.0748205493197]},"properties":{"OBJECTID":140,"OBJECTID_1":142,"SLUM_NAME":"Muthumariyamman Colony","WARD_NO":101,"ZONE_NO":8}},
{"type":"Feature","geometry":{"type":"Point","coordinates":[80.2261016562217,13.0187943564686]},"properties":{"OBJECTID":141,"OBJECTID_1":144,"SLUM_NAME":"Athuma Nagar","WARD_NO":171,"ZONE_NO":13}},
{"type":"Feature","geometry":{"type":"Point","coordinates":[80.2122716657229,13.0186495495437]},"properties":{"OBJECTID":142,"OBJECTID_1":145,"SLUM_NAME":"Alatchi amman koil","WARD_NO":170,"ZONE_NO":13}},
{"type":"Feature","geometry":{"type":"Point","coordinates":[80.2121756969045,13.006820945585]},"properties":{"OBJECTID":143,"OBJECTID_1":146,"SLUM_NAME":"Bharathinagar","WARD_NO":174,"ZONE_NO":13}},
{"type":"Feature","geometry":{"type":"Point","coordinates":[80.2436639805377,12.9957852116337]},"properties":{"OBJECTID":144,"OBJECTID_1":147,"SLUM_NAME":"Kali Kundram","WARD_NO":172,"ZONE_NO":13}},
{"type":"Feature","geometry":{"type":"Point","coordinates":[80.2145016876016,13.0164774950312]},"properties":{"OBJECTID":145,"OBJECTID_1":148,"SLUM_NAME":"Arulaiammanpet","WARD_NO":170,"ZONE_NO":13}},
{"type":"Feature","geometry":{"type":"Point","coordinates":[80.2106800881947,13.0194930433755]},"properties":{"OBJECTID":146,"OBJECTID_1":149,"SLUM_NAME":"12B Nagireddy thottam","WARD_NO":170,"ZONE_NO":13}},
{"type":"Feature","geometry":{"type":"Point","coordinates":[80.2197519227207,13.0027463600469]},"properties":{"OBJECTID":147,"OBJECTID_1":150,"SLUM_NAME":"Kannigapuram","WARD_NO":174,"ZONE_NO":13}},
{"type":"Feature","geometry":{"type":"Point","coordinates":[80.2123036062212,13.0042390489432]},"properties":{"OBJECTID":148,"OBJECTID_1":151,"SLUM_NAME":"Race Courcse Road","WARD_NO":174,"ZONE_NO":13}},
{"type":"Feature","geometry":{"type":"Point","coordinates":[80.2251467731258,13.0164079095923]},"properties":{"OBJECTID":149,"OBJECTID_1":152,"SLUM_NAME":"New Anasuya Mandapam","WARD_NO":170,"ZONE_NO":13}},
{"type":"Feature","geometry":{"type":"Point","coordinates":[80.2254665688754,13.0163932441774]},"properties":{"OBJECTID":150,"OBJECTID_1":153,"SLUM_NAME":"Old Anausuya Namdabam","WARD_NO":171,"ZONE_NO":13}},
{"type":"Feature","geometry":{"type":"Point","coordinates":[80.2260270484424,13.0171802451653]},"properties":{"OBJECTID":151,"OBJECTID_1":154,"SLUM_NAME":"Chinna Malai/LDG Road","WARD_NO":171,"ZONE_NO":13}},
{"type":"Feature","geometry":{"type":"Point","coordinates":[80.2366005310519,13.018267755669]},"properties":{"OBJECTID":152,"OBJECTID_1":155,"SLUM_NAME":"Surya Nagar","WARD_NO":171,"ZONE_NO":13}},
{"type":"Feature","geometry":{"type":"Point","coordinates":[80.227748440614,13.0294211425396]},"properties":{"OBJECTID":153,"OBJECTID_1":156,"SLUM_NAME":"Subbupillai Thottam","WARD_NO":171,"ZONE_NO":13}},
{"type":"Feature","geometry":{"type":"Point","coordinates":[80.2070530620816,13.021930541542]},"properties":{"OBJECTID":154,"OBJECTID_1":158,"SLUM_NAME":"Parthasarathy Koil Street","WARD_NO":170,"ZONE_NO":13}},
{"type":"Feature","geometry":{"type":"Point","coordinates":[80.2400916968597,13.0240738913665]},"properties":{"OBJECTID":155,"OBJECTID_1":159,"SLUM_NAME":"Chitra Nagar","WARD_NO":172,"ZONE_NO":13}},
{"type":"Feature","geometry":{"type":"Point","coordinates":[80.2436564355876,13.0149197016447]},"properties":{"OBJECTID":156,"OBJECTID_1":160,"SLUM_NAME":"Narikuravar Colony","WARD_NO":172,"ZONE_NO":13}},
{"type":"Feature","geometry":{"type":"Point","coordinates":[80.2410366436902,13.02428506111]},"properties":{"OBJECTID":157,"OBJECTID_1":161,"SLUM_NAME":"Kotturpuram","WARD_NO":172,"ZONE_NO":13}},
{"type":"Feature","geometry":{"type":"Point","coordinates":[80.225733255327,13.0294660676674]},"properties":{"OBJECTID":158,"OBJECTID_1":162,"SLUM_NAME":"Railway Border First Street","WARD_NO":171,"ZONE_NO":13}},
{"type":"Feature","geometry":{"type":"Point","coordinates":[80.247249383212,13.0147347128383]},"properties":{"OBJECTID":159,"OBJECTID_1":164,"SLUM_NAME":"Perumal Koil Street I & II","WARD_NO":172,"ZONE_NO":13}},
{"type":"Feature","geometry":{"type":"Point","coordinates":[80.239396076538,13.0237096056318]},"properties":{"OBJECTID":160,"OBJECTID_1":165,"SLUM_NAME":"Dr.Ambedhkar Nagar","WARD_NO":172,"ZONE_NO":13}},
{"type":"Feature","geometry":{"type":"Point","coordinates":[80.2401570097707,13.0249572646318]},"properties":{"OBJECTID":161,"OBJECTID_1":166,"SLUM_NAME":"WaterTank Colony","WARD_NO":172,"ZONE_NO":13}},
{"type":"Feature","geometry":{"type":"Point","coordinates":[80.2260101690982,13.0139063847682]},"properties":{"OBJECTID":162,"OBJECTID_1":167,"SLUM_NAME":"Venkatapuram","WARD_NO":171,"ZONE_NO":13}},
{"type":"Feature","geometry":{"type":"Point","coordinates":[80.2435249689424,13.0249280354616]},"properties":{"OBJECTID":163,"OBJECTID_1":168,"SLUM_NAME":"Periya Karumariyamman Koil St","WARD_NO":172,"ZONE_NO":13}},
{"type":"Feature","geometry":{"type":"Point","coordinates":[80.1879809392676,13.0914606332568]},"properties":{"OBJECTID":164,"OBJECTID_1":169,"SLUM_NAME":"Devar Nagar","WARD_NO":89,"ZONE_NO":7}},
{"type":"Feature","geometry":{"type":"Point","coordinates":[80.1910797416206,13.0941128346014]},"properties":{"OBJECTID":165,"OBJECTID_1":170,"SLUM_NAME":"Kalaivanar Nagar","WARD_NO":88,"ZONE_NO":7}},
{"type":"Feature","geometry":{"type":"Point","coordinates":[80.2120880348075,13.0016524732878]},"properties":{"OBJECTID":166,"OBJECTID_1":171,"SLUM_NAME":"Manthoppu","WARD_NO":174,"ZONE_NO":13}},
{"type":"Feature","geometry":{"type":"Point","coordinates":[80.2127938608891,13.0017848085717]},"properties":{"OBJECTID":167,"OBJECTID_1":172,"SLUM_NAME":"Five furloin road","WARD_NO":174,"ZONE_NO":13}},
{"type":"Feature","geometry":{"type":"Point","coordinates":[80.2527112146996,12.9896677109853]},"properties":{"OBJECTID":168,"OBJECTID_1":173,"SLUM_NAME":"Narikkuravar Colony","WARD_NO":180,"ZONE_NO":13}},
{"type":"Feature","geometry":{"type":"Point","coordinates":[80.2533091459292,12.9888862677328]},"properties":{"OBJECTID":169,"OBJECTID_1":174,"SLUM_NAME":"Jayanthi Periyar Nagar MUDP","WARD_NO":180,"ZONE_NO":13}},
{"type":"Feature","geometry":{"type":"Point","coordinates":[80.2307471059656,13.0238996516868]},"properties":{"OBJECTID":170,"OBJECTID_1":175,"SLUM_NAME":"Kalvaikarai","WARD_NO":171,"ZONE_NO":13}},
{"type":"Feature","geometry":{"type":"Point","coordinates":[80.2609076760156,13.0196759832363]},"properties":{"OBJECTID":171,"OBJECTID_1":176,"SLUM_NAME":"KVB Garden","WARD_NO":173,"ZONE_NO":13}},
{"type":"Feature","geometry":{"type":"Point","coordinates":[80.2598812331242,13.0227712506601]},"properties":{"OBJECTID":172,"OBJECTID_1":177,"SLUM_NAME":"Valleshvaran Thottam","WARD_NO":173,"ZONE_NO":13}},
{"type":"Feature","geometry":{"type":"Point","coordinates":[80.2617535260939,13.0208803646538]},"properties":{"OBJECTID":173,"OBJECTID_1":178,"SLUM_NAME":"Rajamuthiyapuram","WARD_NO":173,"ZONE_NO":13}},
{"type":"Feature","geometry":{"type":"Point","coordinates":[80.2432951179089,12.9925011147607]},"properties":{"OBJECTID":174,"OBJECTID_1":179,"SLUM_NAME":"Kanagam","WARD_NO":180,"ZONE_NO":13}},
{"type":"Feature","geometry":{"type":"Point","coordinates":[80.2641361142472,12.9849151512067]},"properties":{"OBJECTID":175,"OBJECTID_1":180,"SLUM_NAME":"Rajiv Gandhi Nagar","WARD_NO":181,"ZONE_NO":13}},
{"type":"Feature","geometry":{"type":"Point","coordinates":[80.2599844711099,12.9794995831739]},"properties":{"OBJECTID":176,"OBJECTID_1":181,"SLUM_NAME":"Thiruveethiyamman koil street","WARD_NO":182,"ZONE_NO":13}},
{"type":"Feature","geometry":{"type":"Point","coordinates":[80.2568526637551,12.9949444889317]},"properties":{"OBJECTID":177,"OBJECTID_1":182,"SLUM_NAME":"Marudheeswarar Nagar","WARD_NO":181,"ZONE_NO":13}},
{"type":"Feature","geometry":{"type":"Point","coordinates":[80.2644196755515,12.9851430567221]},"properties":{"OBJECTID":178,"OBJECTID_1":183,"SLUM_NAME":"Maiyanam Salai","WARD_NO":181,"ZONE_NO":13}},
{"type":"Feature","geometry":{"type":"Point","coordinates":[80.2662683077949,13.0239367009533]},"properties":{"OBJECTID":179,"OBJECTID_1":184,"SLUM_NAME":"Rajagramani Thottam","WARD_NO":173,"ZONE_NO":13}},
{"type":"Feature","geometry":{"type":"Point","coordinates":[80.2533512760177,12.9804729148746]},"properties":{"OBJECTID":180,"OBJECTID_1":185,"SLUM_NAME":"Perunthalaivar Kamarajar Nagar","WARD_NO":180,"ZONE_NO":13}},
{"type":"Feature","geometry":{"type":"Point","coordinates":[80.2295930493033,12.9849186061922]},"properties":{"OBJECTID":181,"OBJECTID_1":186,"SLUM_NAME":"Old Velachery Road","WARD_NO":179,"ZONE_NO":13}},
{"type":"Feature","geometry":{"type":"Point","coordinates":[80.2538997990082,12.977792427134]},"properties":{"OBJECTID":182,"OBJECTID_1":187,"SLUM_NAME":"Avvai Nagar","WARD_NO":182,"ZONE_NO":13}},
{"type":"Feature","geometry":{"type":"Point","coordinates":[80.2651937655099,12.9848691203264]},"properties":{"OBJECTID":183,"OBJECTID_1":188,"SLUM_NAME":"Raja Srinivasa Nagar","WARD_NO":181,"ZONE_NO":13}},
{"type":"Feature","geometry":{"type":"Point","coordinates":[80.2622950179707,12.9921958640648]},"properties":{"OBJECTID":184,"OBJECTID_1":189,"SLUM_NAME":"Lakshmipuram","WARD_NO":181,"ZONE_NO":13}},
{"type":"Feature","geometry":{"type":"Point","coordinates":[80.1784870250171,13.0934552534782]},"properties":{"OBJECTID":185,"OBJECTID_1":190,"SLUM_NAME":"Mathiyalagan Street","WARD_NO":87,"ZONE_NO":7}},
{"type":"Feature","geometry":{"type":"Point","coordinates":[80.1885756141043,13.0988247144492]},"properties":{"OBJECTID":186,"OBJECTID_1":191,"SLUM_NAME":"Padavattamman Kovil Street","WARD_NO":88,"ZONE_NO":7}},
{"type":"Feature","geometry":{"type":"Point","coordinates":[80.1878964060027,13.0988606159283]},"properties":{"OBJECTID":187,"OBJECTID_1":192,"SLUM_NAME":"North Mada Veedhi","WARD_NO":88,"ZONE_NO":7}},
{"type":"Feature","geometry":{"type":"Point","coordinates":[80.1920192213043,13.086605218295]},"properties":{"OBJECTID":188,"OBJECTID_1":193,"SLUM_NAME":"Gandhi Nagar","WARD_NO":90,"ZONE_NO":7}},
{"type":"Feature","geometry":{"type":"Point","coordinates":[80.1916100144378,13.0849964786144]},"properties":{"OBJECTID":189,"OBJECTID_1":194,"SLUM_NAME":"Kamaraj Nagar","WARD_NO":90,"ZONE_NO":7}},
{"type":"Feature","geometry":{"type":"Point","coordinates":[80.1674507510345,13.1102891870836]},"properties":{"OBJECTID":190,"OBJECTID_1":195,"SLUM_NAME":"Pattravakkam(Mariyamman Koil Street)","WARD_NO":84,"ZONE_NO":7}},
{"type":"Feature","geometry":{"type":"Point","coordinates":[80.1664358110703,13.1101949287399]},"properties":{"OBJECTID":191,"OBJECTID_1":196,"SLUM_NAME":"Pattravakkam(Kulakarai Street)","WARD_NO":84,"ZONE_NO":7}},
{"type":"Feature","geometry":{"type":"Point","coordinates":[80.1686576187541,13.1105507945683]},"properties":{"OBJECTID":192,"OBJECTID_1":197,"SLUM_NAME":"Pattravakkam(Kannan Koil Street)","WARD_NO":84,"ZONE_NO":7}},
{"type":"Feature","geometry":{"type":"Point","coordinates":[80.1698021335115,13.1071231548784]},"properties":{"OBJECTID":193,"OBJECTID_1":198,"SLUM_NAME":"Pattravakkam(Yadavel Street)","WARD_NO":84,"ZONE_NO":7}},
{"type":"Feature","geometry":{"type":"Point","coordinates":[80.1698191628743,13.1038820808652]},"properties":{"OBJECTID":194,"OBJECTID_1":199,"SLUM_NAME":"Pattravakkam(Kanniyamman Koil Street)","WARD_NO":85,"ZONE_NO":7}},
{"type":"Feature","geometry":{"type":"Point","coordinates":[80.152470073454,13.1315870101333]},"properties":{"OBJECTID":195,"OBJECTID_1":200,"SLUM_NAME":"Lakshmi Amman Nagar","WARD_NO":79,"ZONE_NO":7}},
{"type":"Feature","geometry":{"type":"Point","coordinates":[80.2521112272264,12.9926523915413]},"properties":{"OBJECTID":196,"OBJECTID_1":201,"SLUM_NAME":"Indira Nagar Phase-II","WARD_NO":180,"ZONE_NO":13}},
{"type":"Feature","geometry":{"type":"Point","coordinates":[80.2634417812113,13.0092854746889]},"properties":{"OBJECTID":197,"OBJECTID_1":202,"SLUM_NAME":"Ponniamman Koil Street","WARD_NO":176,"ZONE_NO":13}},
{"type":"Feature","geometry":{"type":"Point","coordinates":[80.2612074860467,12.9923299987933]},"properties":{"OBJECTID":198,"OBJECTID_1":203,"SLUM_NAME":"Gangai Amman Koil Street","WARD_NO":181,"ZONE_NO":13}},
{"type":"Feature","geometry":{"type":"Point","coordinates":[80.2414652209291,12.9855963041235]},"properties":{"OBJECTID":199,"OBJECTID_1":204,"SLUM_NAME":"Anbazhagan nagar","WARD_NO":180,"ZONE_NO":13}},
{"type":"Feature","geometry":{"type":"Point","coordinates":[80.2530344824378,12.9849043757133]},"properties":{"OBJECTID":200,"OBJECTID_1":205,"SLUM_NAME":"Ranganathapuram","WARD_NO":180,"ZONE_NO":13}},
{"type":"Feature","geometry":{"type":"Point","coordinates":[80.2587026183186,12.999037473479]},"properties":{"OBJECTID":201,"OBJECTID_1":206,"SLUM_NAME":"Saasthiri Nagar (Tenement)","WARD_NO":176,"ZONE_NO":13}},
{"type":"Feature","geometry":{"type":"Point","coordinates":[80.2589510474104,12.9997933612623]},"properties":{"OBJECTID":202,"OBJECTID_1":207,"SLUM_NAME":"Sasthri Nagar","WARD_NO":176,"ZONE_NO":13}},
{"type":"Feature","geometry":{"type":"Point","coordinates":[80.2527106038452,12.9893583208773]},"properties":{"OBJECTID":203,"OBJECTID_1":208,"SLUM_NAME":"Jayanthi Periyar -Tenement","WARD_NO":180,"ZONE_NO":13}},
{"type":"Feature","geometry":{"type":"Point","coordinates":[80.2538113095629,12.9895844812887]},"properties":{"OBJECTID":204,"OBJECTID_1":209,"SLUM_NAME":"Valluvar Nagar","WARD_NO":180,"ZONE_NO":13}},
{"type":"Feature","geometry":{"type":"Point","coordinates":[80.2561291381674,13.0234841896274]},"properties":{"OBJECTID":205,"OBJECTID_1":210,"SLUM_NAME":"Govindasamy Nagar","WARD_NO":173,"ZONE_NO":13}},
{"type":"Feature","geometry":{"type":"Point","coordinates":[80.2432623240112,12.9841802798671]},"properties":{"OBJECTID":206,"OBJECTID_1":211,"SLUM_NAME":"V.V Koil Street","WARD_NO":180,"ZONE_NO":13}},
{"type":"Feature","geometry":{"type":"Point","coordinates":[80.263939499981,12.9994886026947]},"properties":{"OBJECTID":207,"OBJECTID_1":212,"SLUM_NAME":"Adhi Andra Kudiyiruppu","WARD_NO":176,"ZONE_NO":13}},
{"type":"Feature","geometry":{"type":"Point","coordinates":[80.2639537858889,12.9991550640714]},"properties":{"OBJECTID":208,"OBJECTID_1":213,"SLUM_NAME":"Kakkan Colony (Tenament)","WARD_NO":176,"ZONE_NO":13}},
{"type":"Feature","geometry":{"type":"Point","coordinates":[80.2590317700219,12.9860233928907]},"properties":{"OBJECTID":209,"OBJECTID_1":214,"SLUM_NAME":"Mangala Eri","WARD_NO":182,"ZONE_NO":13}},
{"type":"Feature","geometry":{"type":"Point","coordinates":[80.2540004058285,12.9815562821063]},"properties":{"OBJECTID":210,"OBJECTID_1":215,"SLUM_NAME":"Bharathi Nagar (LB Road)","WARD_NO":182,"ZONE_NO":13}},
{"type":"Feature","geometry":{"type":"Point","coordinates":[80.2529746573348,13.017179330549]},"properties":{"OBJECTID":211,"OBJECTID_1":216,"SLUM_NAME":"Aringer Anna Nagar","WARD_NO":173,"ZONE_NO":13}},
{"type":"Feature","geometry":{"type":"Point","coordinates":[80.2514224655419,12.9914025760341]},"properties":{"OBJECTID":212,"OBJECTID_1":217,"SLUM_NAME":"Ranganathapuram (Indra Nagar)","WARD_NO":180,"ZONE_NO":13}},
{"type":"Feature","geometry":{"type":"Point","coordinates":[80.2343685580324,12.9804804823646]},"properties":{"OBJECTID":213,"OBJECTID_1":218,"SLUM_NAME":"Bharathi Nagar","WARD_NO":180,"ZONE_NO":13}},
{"type":"Feature","geometry":{"type":"Point","coordinates":[80.240123201675,12.9802475681337]},"properties":{"OBJECTID":214,"OBJECTID_1":219,"SLUM_NAME":"Thanthai Periyar Nagar","WARD_NO":180,"ZONE_NO":13}},
{"type":"Feature","geometry":{"type":"Point","coordinates":[80.2411003126843,12.9829903500547]},"properties":{"OBJECTID":215,"OBJECTID_1":220,"SLUM_NAME":"Mahathma Gandhi Nagar","WARD_NO":180,"ZONE_NO":13}},
{"type":"Feature","geometry":{"type":"Point","coordinates":[80.2507422297677,12.9806920428568]},"properties":{"OBJECTID":216,"OBJECTID_1":221,"SLUM_NAME":"Anna Nagar(100 feet road)","WARD_NO":180,"ZONE_NO":13}},
{"type":"Feature","geometry":{"type":"Point","coordinates":[80.2589736085988,12.9829139178536]},"properties":{"OBJECTID":217,"OBJECTID_1":222,"SLUM_NAME":"Puthiran Kanni Kuttai","WARD_NO":182,"ZONE_NO":13}},
{"type":"Feature","geometry":{"type":"Point","coordinates":[80.2587852435618,12.9817997256397]},"properties":{"OBJECTID":218,"OBJECTID_1":223,"SLUM_NAME":"Thirumudivinayagar Street(N)","WARD_NO":182,"ZONE_NO":13}},
{"type":"Feature","geometry":{"type":"Point","coordinates":[80.2415625569834,12.9883122453276]},"properties":{"OBJECTID":219,"OBJECTID_1":224,"SLUM_NAME":"Periyar Nagar (Kanagam)","WARD_NO":180,"ZONE_NO":13}},
{"type":"Feature","geometry":{"type":"Point","coordinates":[80.2421733224434,12.9867515458103]},"properties":{"OBJECTID":220,"OBJECTID_1":225,"SLUM_NAME":"M G R Nagar","WARD_NO":180,"ZONE_NO":13}},
{"type":"Feature","geometry":{"type":"Point","coordinates":[80.2619814601225,12.9875997926191]},"properties":{"OBJECTID":221,"OBJECTID_1":226,"SLUM_NAME":"Annastreet","WARD_NO":181,"ZONE_NO":13}},
{"type":"Feature","geometry":{"type":"Point","coordinates":[80.2637618284891,13.008349570108]},"properties":{"OBJECTID":222,"OBJECTID_1":227,"SLUM_NAME":"Besant Avenue(Adyar Huts)","WARD_NO":176,"ZONE_NO":13}},
{"type":"Feature","geometry":{"type":"Point","coordinates":[80.2525191971127,13.0181619529495]},"properties":{"OBJECTID":223,"OBJECTID_1":228,"SLUM_NAME":"Annai Sathya Nagar","WARD_NO":173,"ZONE_NO":13}},
{"type":"Feature","geometry":{"type":"Point","coordinates":[80.2520213777317,13.0174765123946]},"properties":{"OBJECTID":224,"OBJECTID_1":229,"SLUM_NAME":"Annai Teresa Nagar","WARD_NO":173,"ZONE_NO":13}},
{"type":"Feature","geometry":{"type":"Point","coordinates":[80.2426244994982,12.9934414828224]},"properties":{"OBJECTID":225,"OBJECTID_1":230,"SLUM_NAME":"Nehru Street (Kanagam)","WARD_NO":180,"ZONE_NO":13}},
{"type":"Feature","geometry":{"type":"Point","coordinates":[80.2255487135199,13.026998356618]},"properties":{"OBJECTID":226,"OBJECTID_1":231,"SLUM_NAME":"Appavu Garden","WARD_NO":171,"ZONE_NO":13}},
{"type":"Feature","geometry":{"type":"Point","coordinates":[80.1549027211249,13.129458865463]},"properties":{"OBJECTID":227,"OBJECTID_1":232,"SLUM_NAME":"S.V.Nagar","WARD_NO":79,"ZONE_NO":7}},
{"type":"Feature","geometry":{"type":"Point","coordinates":[80.2605293280758,13.0210638925115]},"properties":{"OBJECTID":228,"OBJECTID_1":233,"SLUM_NAME":"Shanmugapuram","WARD_NO":173,"ZONE_NO":13}},
{"type":"Feature","geometry":{"type":"Point","coordinates":[80.2078565961201,12.9926706165249]},"properties":{"OBJECTID":229,"OBJECTID_1":234,"SLUM_NAME":"ASK Nagar","WARD_NO":177,"ZONE_NO":13}},
{"type":"Feature","geometry":{"type":"Point","coordinates":[80.2093614970032,12.9941446483422]},"properties":{"OBJECTID":230,"OBJECTID_1":235,"SLUM_NAME":"Periyar Nagar","WARD_NO":177,"ZONE_NO":13}},
{"type":"Feature","geometry":{"type":"Point","coordinates":[80.206295024119,12.9913149484252]},"properties":{"OBJECTID":231,"OBJECTID_1":236,"SLUM_NAME":"Kakkan Nagar","WARD_NO":177,"ZONE_NO":13}},
{"type":"Feature","geometry":{"type":"Point","coordinates":[80.2123898705396,12.9946067785998]},"properties":{"OBJECTID":232,"OBJECTID_1":237,"SLUM_NAME":"Nehru Nagar","WARD_NO":177,"ZONE_NO":13}},
{"type":"Feature","geometry":{"type":"Point","coordinates":[80.2145863008166,12.986957855066]},"properties":{"OBJECTID":233,"OBJECTID_1":238,"SLUM_NAME":"Sasi Nagar","WARD_NO":177,"ZONE_NO":13}},
{"type":"Feature","geometry":{"type":"Point","coordinates":[80.2081243102445,12.9877661587782]},"properties":{"OBJECTID":234,"OBJECTID_1":239,"SLUM_NAME":"Gandhi Nagar","WARD_NO":177,"ZONE_NO":13}},
{"type":"Feature","geometry":{"type":"Point","coordinates":[80.2089544200423,12.9924529503851]},"properties":{"OBJECTID":235,"OBJECTID_1":240,"SLUM_NAME":"Ex-Serviceman Colony","WARD_NO":177,"ZONE_NO":13}},
{"type":"Feature","geometry":{"type":"Point","coordinates":[80.2092991242781,12.9956786920758]},"properties":{"OBJECTID":236,"OBJECTID_1":241,"SLUM_NAME":"Indira Gandhi Nagar","WARD_NO":177,"ZONE_NO":13}},
{"type":"Feature","geometry":{"type":"Point","coordinates":[80.2084789669153,12.9903051292314]},"properties":{"OBJECTID":237,"OBJECTID_1":242,"SLUM_NAME":"Ambedkar Nagar","WARD_NO":177,"ZONE_NO":13}},
{"type":"Feature","geometry":{"type":"Point","coordinates":[80.220638203275,12.9875675706516]},"properties":{"OBJECTID":238,"OBJECTID_1":243,"SLUM_NAME":"Throwpathy amman koil street","WARD_NO":178,"ZONE_NO":13}},
{"type":"Feature","geometry":{"type":"Point","coordinates":[80.221800806509,12.9863185462502]},"properties":{"OBJECTID":239,"OBJECTID_1":244,"SLUM_NAME":"Lakshmi puram","WARD_NO":178,"ZONE_NO":13}},
{"type":"Feature","geometry":{"type":"Point","coordinates":[80.2214719593346,12.9854702154107]},"properties":{"OBJECTID":240,"OBJECTID_1":245,"SLUM_NAME":"Jeganathapuram","WARD_NO":178,"ZONE_NO":13}},
{"type":"Feature","geometry":{"type":"Point","coordinates":[80.2254184065997,13.0118738035218]},"properties":{"OBJECTID":241,"OBJECTID_1":246,"SLUM_NAME":"Venkatapuram MUDP","WARD_NO":171,"ZONE_NO":13}},
{"type":"Feature","geometry":{"type":"Point","coordinates":[80.2667830442493,13.1166157041312]},"properties":{"OBJECTID":242,"OBJECTID_1":249,"SLUM_NAME":"Mallipoo colony","WARD_NO":46,"ZONE_NO":4}},
{"type":"Feature","geometry":{"type":"Point","coordinates":[80.2672752698211,13.1224031448325]},"properties":{"OBJECTID":243,"OBJECTID_1":256,"SLUM_NAME":"Debar Nagar","WARD_NO":37,"ZONE_NO":4}},
{"type":"Feature","geometry":{"type":"Point","coordinates":[80.2650755903376,13.1186736483951]},"properties":{"OBJECTID":244,"OBJECTID_1":259,"SLUM_NAME":"Kennedy nagar","WARD_NO":46,"ZONE_NO":4}},
{"type":"Feature","geometry":{"type":"Point","coordinates":[80.2672480158336,13.1248488020734]},"properties":{"OBJECTID":245,"OBJECTID_1":263,"SLUM_NAME":"Damodaran Nagar","WARD_NO":37,"ZONE_NO":4}},
{"type":"Feature","geometry":{"type":"Point","coordinates":[80.2454677077966,13.1194321508393]},"properties":{"OBJECTID":246,"OBJECTID_1":265,"SLUM_NAME":"Gowthama Puram","WARD_NO":69,"ZONE_NO":6}},
{"type":"Feature","geometry":{"type":"Point","coordinates":[80.2734448902092,13.1174711447602]},"properties":{"OBJECTID":247,"OBJECTID_1":267,"SLUM_NAME":"Jeeva Nagar","WARD_NO":47,"ZONE_NO":4}},
{"type":"Feature","geometry":{"type":"Point","coordinates":[80.2804081326251,13.1391056188714]},"properties":{"OBJECTID":248,"OBJECTID_1":268,"SLUM_NAME":"Nedunchezhiyan Nagar","WARD_NO":38,"ZONE_NO":4}},
{"type":"Feature","geometry":{"type":"Point","coordinates":[80.1901496933491,13.0824427330356]},"properties":{"OBJECTID":249,"OBJECTID_1":269,"SLUM_NAME":"Periyar Nagar","WARD_NO":90,"ZONE_NO":7}},
{"type":"Feature","geometry":{"type":"Point","coordinates":[80.279288985393,13.1339209397271]},"properties":{"OBJECTID":250,"OBJECTID_1":270,"SLUM_NAME":"Karunanidhi Nagar","WARD_NO":38,"ZONE_NO":4}},
{"type":"Feature","geometry":{"type":"Point","coordinates":[80.2791682060047,13.1377995292434]},"properties":{"OBJECTID":251,"OBJECTID_1":272,"SLUM_NAME":"Vinobha nagar","WARD_NO":38,"ZONE_NO":4}},
{"type":"Feature","geometry":{"type":"Point","coordinates":[80.2751855566336,13.1273410298443]},"properties":{"OBJECTID":252,"OBJECTID_1":274,"SLUM_NAME":"Nehru Nagar","WARD_NO":38,"ZONE_NO":4}},
{"type":"Feature","geometry":{"type":"Point","coordinates":[80.2785669087878,13.1289441885998]},"properties":{"OBJECTID":253,"OBJECTID_1":275,"SLUM_NAME":"Durgadevi Nagar","WARD_NO":38,"ZONE_NO":4}},
{"type":"Feature","geometry":{"type":"Point","coordinates":[80.2796533681233,13.1280735009911]},"properties":{"OBJECTID":254,"OBJECTID_1":276,"SLUM_NAME":"Aziss nagar","WARD_NO":41,"ZONE_NO":4}},
{"type":"Feature","geometry":{"type":"Point","coordinates":[80.2789708128991,13.1269022358333]},"properties":{"OBJECTID":255,"OBJECTID_1":277,"SLUM_NAME":"Kumaran Nagar","WARD_NO":41,"ZONE_NO":4}},
{"type":"Feature","geometry":{"type":"Point","coordinates":[80.2779651148026,13.1378758068029]},"properties":{"OBJECTID":256,"OBJECTID_1":279,"SLUM_NAME":"Annai sandhya nagar","WARD_NO":38,"ZONE_NO":4}},
{"type":"Feature","geometry":{"type":"Point","coordinates":[80.2763810642581,13.1234473939044]},"properties":{"OBJECTID":257,"OBJECTID_1":280,"SLUM_NAME":"Moopanar Nagar","WARD_NO":41,"ZONE_NO":4}},
{"type":"Feature","geometry":{"type":"Point","coordinates":[80.2759646951239,13.1240002293374]},"properties":{"OBJECTID":258,"OBJECTID_1":281,"SLUM_NAME":"Muniswarar Nagar","WARD_NO":41,"ZONE_NO":4}},
{"type":"Feature","geometry":{"type":"Point","coordinates":[80.274956129605,13.1242197935041]},"properties":{"OBJECTID":259,"OBJECTID_1":282,"SLUM_NAME":"Thiruvallur Nagar","WARD_NO":41,"ZONE_NO":4}},
{"type":"Feature","geometry":{"type":"Point","coordinates":[80.2758678693127,13.1252496331145]},"properties":{"OBJECTID":260,"OBJECTID_1":283,"SLUM_NAME":"Gopal Nagar","WARD_NO":41,"ZONE_NO":4}},
{"type":"Feature","geometry":{"type":"Point","coordinates":[80.2741236563396,13.1256040511537]},"properties":{"OBJECTID":261,"OBJECTID_1":284,"SLUM_NAME":"Kannagi Nagar","WARD_NO":41,"ZONE_NO":4}},
{"type":"Feature","geometry":{"type":"Point","coordinates":[80.2703797198822,13.1269949909179]},"properties":{"OBJECTID":262,"OBJECTID_1":285,"SLUM_NAME":"Chandrasekar Nagar","WARD_NO":41,"ZONE_NO":4}},
{"type":"Feature","geometry":{"type":"Point","coordinates":[80.2727198904861,13.1297348076621]},"properties":{"OBJECTID":263,"OBJECTID_1":286,"SLUM_NAME":"M.G.R.Nagar","WARD_NO":41,"ZONE_NO":4}},
{"type":"Feature","geometry":{"type":"Point","coordinates":[80.2745585226838,13.1224912036306]},"properties":{"OBJECTID":264,"OBJECTID_1":288,"SLUM_NAME":"Anna Nagar","WARD_NO":41,"ZONE_NO":4}},
{"type":"Feature","geometry":{"type":"Point","coordinates":[80.2737360270063,13.1206606117227]},"properties":{"OBJECTID":265,"OBJECTID_1":289,"SLUM_NAME":"Govindasamy Nagar","WARD_NO":41,"ZONE_NO":4}},
{"type":"Feature","geometry":{"type":"Point","coordinates":[80.2727248698477,13.1161587424617]},"properties":{"OBJECTID":266,"OBJECTID_1":290,"SLUM_NAME":"Bharathi Nagar","WARD_NO":47,"ZONE_NO":4}},
{"type":"Feature","geometry":{"type":"Point","coordinates":[80.2779520290438,13.1392647087693]},"properties":{"OBJECTID":267,"OBJECTID_1":291,"SLUM_NAME":"Tamizhan nagar","WARD_NO":38,"ZONE_NO":4}},
{"type":"Feature","geometry":{"type":"Point","coordinates":[80.2784618032046,13.138970107324]},"properties":{"OBJECTID":268,"OBJECTID_1":292,"SLUM_NAME":"Rajasekar nagar","WARD_NO":38,"ZONE_NO":4}},
{"type":"Feature","geometry":{"type":"Point","coordinates":[80.274601697513,13.1202288405775]},"properties":{"OBJECTID":269,"OBJECTID_1":293,"SLUM_NAME":"Korukku Pettai","WARD_NO":41,"ZONE_NO":4}},
{"type":"Feature","geometry":{"type":"Point","coordinates":[80.2782427804636,13.1385200255467]},"properties":{"OBJECTID":270,"OBJECTID_1":294,"SLUM_NAME":"New Vinobha nagar","WARD_NO":38,"ZONE_NO":4}},
{"type":"Feature","geometry":{"type":"Point","coordinates":[80.2748767086524,13.1157010205456]},"properties":{"OBJECTID":271,"OBJECTID_1":295,"SLUM_NAME":"Meenambal Nagar","WARD_NO":47,"ZONE_NO":4}},
{"type":"Feature","geometry":{"type":"Point","coordinates":[80.2735818464591,13.1127361555509]},"properties":{"OBJECTID":272,"OBJECTID_1":297,"SLUM_NAME":"Ananthanayagi Nagar","WARD_NO":47,"ZONE_NO":4}},
{"type":"Feature","geometry":{"type":"Point","coordinates":[80.2915824686837,13.1376533085054]},"properties":{"OBJECTID":273,"OBJECTID_1":299,"SLUM_NAME":"Sivan Thottam","WARD_NO":40,"ZONE_NO":4}},
{"type":"Feature","geometry":{"type":"Point","coordinates":[80.2969371069034,13.1375255031792]},"properties":{"OBJECTID":274,"OBJECTID_1":301,"SLUM_NAME":"Desiya Nagar","WARD_NO":39,"ZONE_NO":4}},
{"type":"Feature","geometry":{"type":"Point","coordinates":[80.2750482644138,13.1255329637475]},"properties":{"OBJECTID":275,"OBJECTID_1":302,"SLUM_NAME":"Karumariyamman Nagar","WARD_NO":41,"ZONE_NO":4}},
{"type":"Feature","geometry":{"type":"Point","coordinates":[80.2970015682116,13.1390786890782]},"properties":{"OBJECTID":276,"OBJECTID_1":303,"SLUM_NAME":"Ashok Nagar","WARD_NO":39,"ZONE_NO":4}},
{"type":"Feature","geometry":{"type":"Point","coordinates":[80.2979660399248,13.1389941590414]},"properties":{"OBJECTID":277,"OBJECTID_1":304,"SLUM_NAME":"Cheriyan Nagar","WARD_NO":39,"ZONE_NO":4}},
{"type":"Feature","geometry":{"type":"Point","coordinates":[80.2431836297957,13.1313985718557]},"properties":{"OBJECTID":278,"OBJECTID_1":305,"SLUM_NAME":"Ganesh nagar","WARD_NO":34,"ZONE_NO":4}},
{"type":"Feature","geometry":{"type":"Point","coordinates":[80.2774635485485,13.1357184883455]},"properties":{"OBJECTID":279,"OBJECTID_1":306,"SLUM_NAME":"Patel Nagar","WARD_NO":38,"ZONE_NO":4}},
{"type":"Feature","geometry":{"type":"Point","coordinates":[80.2902698494922,13.1336780117286]},"properties":{"OBJECTID":280,"OBJECTID_1":310,"SLUM_NAME":"Ammaniamman Garden","WARD_NO":40,"ZONE_NO":4}},
{"type":"Feature","geometry":{"type":"Point","coordinates":[80.2963266675319,13.1391922816275]},"properties":{"OBJECTID":281,"OBJECTID_1":312,"SLUM_NAME":"Dhanabal Nagar","WARD_NO":39,"ZONE_NO":4}},
{"type":"Feature","geometry":{"type":"Point","coordinates":[80.2897903692177,13.1367520449137]},"properties":{"OBJECTID":282,"OBJECTID_1":313,"SLUM_NAME":"Burma colony","WARD_NO":40,"ZONE_NO":4}},
{"type":"Feature","geometry":{"type":"Point","coordinates":[80.2913494519872,13.1338621161633]},"properties":{"OBJECTID":283,"OBJECTID_1":314,"SLUM_NAME":"Othavadai Street","WARD_NO":40,"ZONE_NO":4}},
{"type":"Feature","geometry":{"type":"Point","coordinates":[80.2862901663582,13.1321942806111]},"properties":{"OBJECTID":284,"OBJECTID_1":316,"SLUM_NAME":"36 Kudisai Pahuthi (V O C)","WARD_NO":40,"ZONE_NO":4}},
{"type":"Feature","geometry":{"type":"Point","coordinates":[80.2843173303486,13.1234101496127]},"properties":{"OBJECTID":285,"OBJECTID_1":320,"SLUM_NAME":"Appasamy Thottam","WARD_NO":42,"ZONE_NO":4}},
{"type":"Feature","geometry":{"type":"Point","coordinates":[80.2812594255956,13.1192150206562]},"properties":{"OBJECTID":286,"OBJECTID_1":324,"SLUM_NAME":"Thirunavkarasu thottam","WARD_NO":42,"ZONE_NO":4}},
{"type":"Feature","geometry":{"type":"Point","coordinates":[80.2842147499297,13.1210381904965]},"properties":{"OBJECTID":287,"OBJECTID_1":327,"SLUM_NAME":"Veerakutty st","WARD_NO":42,"ZONE_NO":4}},
{"type":"Feature","geometry":{"type":"Point","coordinates":[80.274293935595,13.1137856048995]},"properties":{"OBJECTID":288,"OBJECTID_1":330,"SLUM_NAME":"Ambethkar nagar","WARD_NO":47,"ZONE_NO":4}},
{"type":"Feature","geometry":{"type":"Point","coordinates":[80.2736010389652,13.1108813114397]},"properties":{"OBJECTID":289,"OBJECTID_1":331,"SLUM_NAME":"Harinaranayana Nagar","WARD_NO":47,"ZONE_NO":4}},
{"type":"Feature","geometry":{"type":"Point","coordinates":[80.2733562983559,13.11856721068]},"properties":{"OBJECTID":290,"OBJECTID_1":332,"SLUM_NAME":"Kamaraj Nagar","WARD_NO":47,"ZONE_NO":4}},
{"type":"Feature","geometry":{"type":"Point","coordinates":[80.2743218848784,13.1180893991612]},"properties":{"OBJECTID":291,"OBJECTID_1":333,"SLUM_NAME":"Motchapuram","WARD_NO":47,"ZONE_NO":4}},
{"type":"Feature","geometry":{"type":"Point","coordinates":[80.2722690547911,13.1174845854703]},"properties":{"OBJECTID":292,"OBJECTID_1":334,"SLUM_NAME":"Lal Bahadur Sashathri Nagar","WARD_NO":47,"ZONE_NO":4}},
{"type":"Feature","geometry":{"type":"Point","coordinates":[80.2787960833898,13.1246477301702]},"properties":{"OBJECTID":293,"OBJECTID_1":336,"SLUM_NAME":"Carnesan nagar","WARD_NO":41,"ZONE_NO":4}},
{"type":"Feature","geometry":{"type":"Point","coordinates":[80.2776185914783,13.1157321899529]},"properties":{"OBJECTID":294,"OBJECTID_1":340,"SLUM_NAME":"Ranganathapuram","WARD_NO":47,"ZONE_NO":4}},
{"type":"Feature","geometry":{"type":"Point","coordinates":[80.2875810705743,13.1310354558972]},"properties":{"OBJECTID":295,"OBJECTID_1":342,"SLUM_NAME":"V.O.C Nagar","WARD_NO":40,"ZONE_NO":4}},
{"type":"Feature","geometry":{"type":"Point","coordinates":[80.2456619442223,13.1243060135892]},"properties":{"OBJECTID":296,"OBJECTID_1":346,"SLUM_NAME":"Erukkancherry","WARD_NO":35,"ZONE_NO":4}},
{"type":"Feature","geometry":{"type":"Point","coordinates":[80.2941439248848,13.1257943196793]},"properties":{"OBJECTID":297,"OBJECTID_1":350,"SLUM_NAME":"Kasipuram","WARD_NO":43,"ZONE_NO":4}},
{"type":"Feature","geometry":{"type":"Point","coordinates":[80.2943902501222,13.1215829642579]},"properties":{"OBJECTID":298,"OBJECTID_1":351,"SLUM_NAME":"Kasimanagar","WARD_NO":43,"ZONE_NO":4}},
{"type":"Feature","geometry":{"type":"Point","coordinates":[80.2948643440983,13.1244889063814]},"properties":{"OBJECTID":299,"OBJECTID_1":354,"SLUM_NAME":"Puthumanikuppam","WARD_NO":43,"ZONE_NO":4}},
{"type":"Feature","geometry":{"type":"Point","coordinates":[80.2959286662503,13.1223246000849]},"properties":{"OBJECTID":300,"OBJECTID_1":356,"SLUM_NAME":"Singara Vellan nagar","WARD_NO":43,"ZONE_NO":4}},
{"type":"Feature","geometry":{"type":"Point","coordinates":[80.2502501622995,13.1213979171442]},"properties":{"OBJECTID":301,"OBJECTID_1":362,"SLUM_NAME":"Karunanidhi Salai","WARD_NO":36,"ZONE_NO":4}},
{"type":"Feature","geometry":{"type":"Point","coordinates":[80.2663932984852,13.1131859127317]},"properties":{"OBJECTID":302,"OBJECTID_1":369,"SLUM_NAME":"C.Kalyanapuram","WARD_NO":46,"ZONE_NO":4}},
{"type":"Feature","geometry":{"type":"Point","coordinates":[80.2755649906366,13.1187782672079]},"properties":{"OBJECTID":303,"OBJECTID_1":377,"SLUM_NAME":"Sigirindha Nagar","WARD_NO":47,"ZONE_NO":4}},
{"type":"Feature","geometry":{"type":"Point","coordinates":[80.264456412155,13.1151679361936]},"properties":{"OBJECTID":304,"OBJECTID_1":380,"SLUM_NAME":"New Magazinepuram","WARD_NO":46,"ZONE_NO":4}},
{"type":"Feature","geometry":{"type":"Point","coordinates":[80.2587260338048,13.1190979963788]},"properties":{"OBJECTID":305,"OBJECTID_1":387,"SLUM_NAME":"Salaima Nagar","WARD_NO":36,"ZONE_NO":4}},
{"type":"Feature","geometry":{"type":"Point","coordinates":[80.2673961031082,13.1186427444467]},"properties":{"OBJECTID":306,"OBJECTID_1":396,"SLUM_NAME":"Samanthipoo colony","WARD_NO":46,"ZONE_NO":4}},
{"type":"Feature","geometry":{"type":"Point","coordinates":[80.2566346650935,13.1384713026579]},"properties":{"OBJECTID":307,"OBJECTID_1":402,"SLUM_NAME":"kadumbadiamman nagar","WARD_NO":34,"ZONE_NO":4}},
{"type":"Feature","geometry":{"type":"Point","coordinates":[80.2501719603608,13.1465184884709]},"properties":{"OBJECTID":308,"OBJECTID_1":406,"SLUM_NAME":"Balpannai Pottur","WARD_NO":28,"ZONE_NO":3}},
{"type":"Feature","geometry":{"type":"Point","coordinates":[80.2677727388591,13.1283244025461]},"properties":{"OBJECTID":309,"OBJECTID_1":416,"SLUM_NAME":"Rajaratnam Nagar","WARD_NO":37,"ZONE_NO":4}},
{"type":"Feature","geometry":{"type":"Point","coordinates":[80.260822713356,13.1278667032854]},"properties":{"OBJECTID":310,"OBJECTID_1":417,"SLUM_NAME":"Srinivasapuram","WARD_NO":37,"ZONE_NO":4}},
{"type":"Feature","geometry":{"type":"Point","coordinates":[80.278789704453,13.1397073079243]},"properties":{"OBJECTID":311,"OBJECTID_1":418,"SLUM_NAME":"Rajiv Gandhi nagar","WARD_NO":38,"ZONE_NO":4}},
{"type":"Feature","geometry":{"type":"Point","coordinates":[80.2808792576691,13.1377938640192]},"properties":{"OBJECTID":312,"OBJECTID_1":419,"SLUM_NAME":"Sathri nagar","WARD_NO":38,"ZONE_NO":4}},
{"type":"Feature","geometry":{"type":"Point","coordinates":[80.2806079763347,13.1274576486452]},"properties":{"OBJECTID":313,"OBJECTID_1":421,"SLUM_NAME":"Sivaji Nagar","WARD_NO":41,"ZONE_NO":4}},
{"type":"Feature","geometry":{"type":"Point","coordinates":[80.2750720356328,13.1193130803472]},"properties":{"OBJECTID":314,"OBJECTID_1":422,"SLUM_NAME":"J.J.Nagar","WARD_NO":41,"ZONE_NO":4}},
{"type":"Feature","geometry":{"type":"Point","coordinates":[80.2758426850437,13.1183328762445]},"properties":{"OBJECTID":315,"OBJECTID_1":424,"SLUM_NAME":"Sudanthirapuram","WARD_NO":47,"ZONE_NO":4}},
{"type":"Feature","geometry":{"type":"Point","coordinates":[80.2587819350666,13.123144274268]},"properties":{"OBJECTID":316,"OBJECTID_1":427,"SLUM_NAME":"Pudu Nagar","WARD_NO":36,"ZONE_NO":4}},
{"type":"Feature","geometry":{"type":"Point","coordinates":[80.2902177633754,13.1322055929465]},"properties":{"OBJECTID":317,"OBJECTID_1":435,"SLUM_NAME":"Seniamman koil st","WARD_NO":40,"ZONE_NO":4}},
{"type":"Feature","geometry":{"type":"Point","coordinates":[80.2854914553745,13.1262970807681]},"properties":{"OBJECTID":318,"OBJECTID_1":437,"SLUM_NAME":"Seniamman Nagar","WARD_NO":42,"ZONE_NO":4}},
{"type":"Feature","geometry":{"type":"Point","coordinates":[80.2874093495229,13.1304144066176]},"properties":{"OBJECTID":319,"OBJECTID_1":439,"SLUM_NAME":"Matha Koil Street","WARD_NO":40,"ZONE_NO":4}},
{"type":"Feature","geometry":{"type":"Point","coordinates":[80.2926219560114,13.1257915849114]},"properties":{"OBJECTID":320,"OBJECTID_1":450,"SLUM_NAME":"Y.M.C.A Kuppam","WARD_NO":43,"ZONE_NO":4}},
{"type":"Feature","geometry":{"type":"Point","coordinates":[80.2447089448936,13.1222156994743]},"properties":{"OBJECTID":321,"OBJECTID_1":453,"SLUM_NAME":"Maduma Nagar","WARD_NO":69,"ZONE_NO":6}},
{"type":"Feature","geometry":{"type":"Point","coordinates":[80.2897647959782,13.1378555113792]},"properties":{"OBJECTID":322,"OBJECTID_1":457,"SLUM_NAME":"Jeeva Nagar","WARD_NO":40,"ZONE_NO":4}},
{"type":"Feature","geometry":{"type":"Point","coordinates":[80.2927315046619,13.137032367818]},"properties":{"OBJECTID":323,"OBJECTID_1":458,"SLUM_NAME":"Mangammal Thottam","WARD_NO":40,"ZONE_NO":4}},
{"type":"Feature","geometry":{"type":"Point","coordinates":[80.2930439261413,13.1267729368054]},"properties":{"OBJECTID":324,"OBJECTID_1":461,"SLUM_NAME":"Vinayagapuram","WARD_NO":43,"ZONE_NO":4}},
{"type":"Feature","geometry":{"type":"Point","coordinates":[80.2940654238071,13.1284646764532]},"properties":{"OBJECTID":325,"OBJECTID_1":463,"SLUM_NAME":"Othavadai","WARD_NO":43,"ZONE_NO":4}},
{"type":"Feature","geometry":{"type":"Point","coordinates":[80.2749336842993,13.0915027673292]},"properties":{"OBJECTID":326,"OBJECTID_1":466,"SLUM_NAME":"Jutkapuram","WARD_NO":57,"ZONE_NO":5}},
{"type":"Feature","geometry":{"type":"Point","coordinates":[80.2746150761225,13.099182549585]},"properties":{"OBJECTID":327,"OBJECTID_1":467,"SLUM_NAME":"Wood Warb Gate - II & IV","WARD_NO":54,"ZONE_NO":5}},
{"type":"Feature","geometry":{"type":"Point","coordinates":[80.2761395459057,13.1134275792738]},"properties":{"OBJECTID":328,"OBJECTID_1":468,"SLUM_NAME":"Sinivasapuram","WARD_NO":53,"ZONE_NO":5}},
{"type":"Feature","geometry":{"type":"Point","coordinates":[80.2782998504336,13.1127620952289]},"properties":{"OBJECTID":329,"OBJECTID_1":470,"SLUM_NAME":"Parthasarathy Nagar","WARD_NO":48,"ZONE_NO":4}},
{"type":"Feature","geometry":{"type":"Point","coordinates":[80.2755785165698,13.1112800698736]},"properties":{"OBJECTID":330,"OBJECTID_1":471,"SLUM_NAME":"Bhojaraja Nagar","WARD_NO":53,"ZONE_NO":5}},
{"type":"Feature","geometry":{"type":"Point","coordinates":[80.2966311820401,13.1190729024933]},"properties":{"OBJECTID":331,"OBJECTID_1":472,"SLUM_NAME":"Durai Pillai Street","WARD_NO":50,"ZONE_NO":5}},
{"type":"Feature","geometry":{"type":"Point","coordinates":[80.2757902521772,13.1048067728634]},"properties":{"OBJECTID":332,"OBJECTID_1":473,"SLUM_NAME":"New Labour Lane","WARD_NO":53,"ZONE_NO":5}},
{"type":"Feature","geometry":{"type":"Point","coordinates":[80.2796470233225,13.108994051219]},"properties":{"OBJECTID":333,"OBJECTID_1":474,"SLUM_NAME":"Pensioners Lane","WARD_NO":53,"ZONE_NO":5}},
{"type":"Feature","geometry":{"type":"Point","coordinates":[80.2719236121402,13.1097287634113]},"properties":{"OBJECTID":334,"OBJECTID_1":475,"SLUM_NAME":"Stanly Nagar","WARD_NO":53,"ZONE_NO":5}},
{"type":"Feature","geometry":{"type":"Point","coordinates":[80.2775901032057,13.1083358265398]},"properties":{"OBJECTID":335,"OBJECTID_1":476,"SLUM_NAME":"Ramadass Nagar","WARD_NO":53,"ZONE_NO":5}},
{"type":"Feature","geometry":{"type":"Point","coordinates":[80.2859004008312,13.0988306614277]},"properties":{"OBJECTID":336,"OBJECTID_1":477,"SLUM_NAME":"Asirvadhapuram","WARD_NO":56,"ZONE_NO":5}},
{"type":"Feature","geometry":{"type":"Point","coordinates":[80.2876991118976,13.1001128159615]},"properties":{"OBJECTID":337,"OBJECTID_1":478,"SLUM_NAME":"Apparao Garden","WARD_NO":56,"ZONE_NO":5}},
{"type":"Feature","geometry":{"type":"Point","coordinates":[80.2746169149739,13.0957865744874]},"properties":{"OBJECTID":338,"OBJECTID_1":479,"SLUM_NAME":"Wood Warb Gate - I","WARD_NO":57,"ZONE_NO":5}},
{"type":"Feature","geometry":{"type":"Point","coordinates":[80.2631460270737,13.067916475694]},"properties":{"OBJECTID":339,"OBJECTID_1":480,"SLUM_NAME":"Transport Line","WARD_NO":61,"ZONE_NO":5}},
{"type":"Feature","geometry":{"type":"Point","coordinates":[80.2524372788436,13.0759143917592]},"properties":{"OBJECTID":340,"OBJECTID_1":481,"SLUM_NAME":"Boopathy Nagar","WARD_NO":61,"ZONE_NO":5}},
{"type":"Feature","geometry":{"type":"Point","coordinates":[80.2717323123072,13.0785088388408]},"properties":{"OBJECTID":341,"OBJECTID_1":482,"SLUM_NAME":"East Coovum River Road","WARD_NO":62,"ZONE_NO":5}},
{"type":"Feature","geometry":{"type":"Point","coordinates":[80.2726073297844,13.0779972387379]},"properties":{"OBJECTID":342,"OBJECTID_1":483,"SLUM_NAME":"Nedunchezhiyan Nagar","WARD_NO":62,"ZONE_NO":5}},
{"type":"Feature","geometry":{"type":"Point","coordinates":[80.267869449686,13.078603351689]},"properties":{"OBJECTID":343,"OBJECTID_1":484,"SLUM_NAME":"West Coovum River Road","WARD_NO":62,"ZONE_NO":5}},
{"type":"Feature","geometry":{"type":"Point","coordinates":[80.2747238881545,13.0747893414837]},"properties":{"OBJECTID":344,"OBJECTID_1":485,"SLUM_NAME":"Pallavan Nagar","WARD_NO":59,"ZONE_NO":5}},
{"type":"Feature","geometry":{"type":"Point","coordinates":[80.2715338555963,13.0717449208843]},"properties":{"OBJECTID":345,"OBJECTID_1":486,"SLUM_NAME":"Ritchi Street","WARD_NO":62,"ZONE_NO":5}},
{"type":"Feature","geometry":{"type":"Point","coordinates":[80.2682004276642,13.0604228367993]},"properties":{"OBJECTID":346,"OBJECTID_1":487,"SLUM_NAME":"Lord Govindadoss Salai","WARD_NO":63,"ZONE_NO":5}},
{"type":"Feature","geometry":{"type":"Point","coordinates":[80.2691848500615,13.0790334816859]},"properties":{"OBJECTID":347,"OBJECTID_1":488,"SLUM_NAME":"Cocks Colony","WARD_NO":62,"ZONE_NO":5}},
{"type":"Feature","geometry":{"type":"Point","coordinates":[80.2764823043906,13.0784366099406]},"properties":{"OBJECTID":348,"OBJECTID_1":489,"SLUM_NAME":"Sathyavani Muthu Nagar - Bridge","WARD_NO":59,"ZONE_NO":5}},
{"type":"Feature","geometry":{"type":"Point","coordinates":[80.2794551782121,13.0783394929857]},"properties":{"OBJECTID":349,"OBJECTID_1":490,"SLUM_NAME":"Sathyavani Muthu Nagar - Huts","WARD_NO":59,"ZONE_NO":5}},
{"type":"Feature","geometry":{"type":"Point","coordinates":[80.2730479696009,13.0771925249338]},"properties":{"OBJECTID":350,"OBJECTID_1":491,"SLUM_NAME":"Nedunchezhiyan Nagar - Huts","WARD_NO":62,"ZONE_NO":5}},
{"type":"Feature","geometry":{"type":"Point","coordinates":[80.2745514179082,13.0940446394583]},"properties":{"OBJECTID":351,"OBJECTID_1":492,"SLUM_NAME":"Kalyanapuram","WARD_NO":57,"ZONE_NO":5}},
{"type":"Feature","geometry":{"type":"Point","coordinates":[80.2747717297316,13.0930469737053]},"properties":{"OBJECTID":352,"OBJECTID_1":493,"SLUM_NAME":"Adhi Andra Colony","WARD_NO":57,"ZONE_NO":5}},
{"type":"Feature","geometry":{"type":"Point","coordinates":[80.2934054333645,13.1013324280071]},"properties":{"OBJECTID":353,"OBJECTID_1":494,"SLUM_NAME":"Harbour Area","WARD_NO":60,"ZONE_NO":5}},
{"type":"Feature","geometry":{"type":"Point","coordinates":[80.2743175999145,13.0811396833194]},"properties":{"OBJECTID":354,"OBJECTID_1":495,"SLUM_NAME":"Sathyavani Muthu Nagar","WARD_NO":59,"ZONE_NO":5}},
{"type":"Feature","geometry":{"type":"Point","coordinates":[80.2675719770712,13.0783722141472]},"properties":{"OBJECTID":355,"OBJECTID_1":496,"SLUM_NAME":"Mukkiyamman Koil Street","WARD_NO":62,"ZONE_NO":5}},
{"type":"Feature","geometry":{"type":"Point","coordinates":[80.2676686914913,13.0669891575123]},"properties":{"OBJECTID":356,"OBJECTID_1":497,"SLUM_NAME":"Boothaperumal Nayakan Street","WARD_NO":63,"ZONE_NO":5}},
{"type":"Feature","geometry":{"type":"Point","coordinates":[80.2717777275347,13.0740427883177]},"properties":{"OBJECTID":357,"OBJECTID_1":498,"SLUM_NAME":"Pumping Station Road","WARD_NO":62,"ZONE_NO":5}},
{"type":"Feature","geometry":{"type":"Point","coordinates":[80.2791405298091,13.0789077380623]},"properties":{"OBJECTID":358,"OBJECTID_1":499,"SLUM_NAME":"Gandhi Nagar","WARD_NO":59,"ZONE_NO":5}},
{"type":"Feature","geometry":{"type":"Point","coordinates":[80.276381782012,13.0860444572234]},"properties":{"OBJECTID":359,"OBJECTID_1":500,"SLUM_NAME":"Subbu Pillai Lane","WARD_NO":59,"ZONE_NO":5}},
{"type":"Feature","geometry":{"type":"Point","coordinates":[80.2728985582096,13.1092618544054]},"properties":{"OBJECTID":360,"OBJECTID_1":501,"SLUM_NAME":"Nagappan Nagar","WARD_NO":53,"ZONE_NO":5}},
{"type":"Feature","geometry":{"type":"Point","coordinates":[80.2715487873929,13.1087311760893]},"properties":{"OBJECTID":361,"OBJECTID_1":502,"SLUM_NAME":"Canal Street","WARD_NO":53,"ZONE_NO":5}},
{"type":"Feature","geometry":{"type":"Point","coordinates":[80.2875015544003,13.1119114431439]},"properties":{"OBJECTID":362,"OBJECTID_1":503,"SLUM_NAME":"Narayanappa Naicken Garden","WARD_NO":51,"ZONE_NO":5}},
{"type":"Feature","geometry":{"type":"Point","coordinates":[80.2873508988423,13.1012208565559]},"properties":{"OBJECTID":363,"OBJECTID_1":504,"SLUM_NAME":"Thiruvalluvar Nagar","WARD_NO":56,"ZONE_NO":5}},
{"type":"Feature","geometry":{"type":"Point","coordinates":[80.2862823510152,13.1015228850471]},"properties":{"OBJECTID":364,"OBJECTID_1":505,"SLUM_NAME":"B.R.N Garden","WARD_NO":56,"ZONE_NO":5}},
{"type":"Feature","geometry":{"type":"Point","coordinates":[80.2871442090718,13.1018229148253]},"properties":{"OBJECTID":365,"OBJECTID_1":506,"SLUM_NAME":"Azlvar Patai Lane","WARD_NO":56,"ZONE_NO":5}},
{"type":"Feature","geometry":{"type":"Point","coordinates":[80.2737340758655,13.1070132868821]},"properties":{"OBJECTID":366,"OBJECTID_1":507,"SLUM_NAME":"Periyapalayathamman Kovil","WARD_NO":53,"ZONE_NO":5}},
{"type":"Feature","geometry":{"type":"Point","coordinates":[80.2383439193716,13.0587959285593]},"properties":{"OBJECTID":367,"OBJECTID_1":508,"SLUM_NAME":"Pushpa Nagar","WARD_NO":110,"ZONE_NO":9}},
{"type":"Feature","geometry":{"type":"Point","coordinates":[80.2462175845649,13.0509873161124]},"properties":{"OBJECTID":368,"OBJECTID_1":509,"SLUM_NAME":"Gangaikarai Puram","WARD_NO":113,"ZONE_NO":9}},
{"type":"Feature","geometry":{"type":"Point","coordinates":[80.2511674661721,13.0420877067099]},"properties":{"OBJECTID":369,"OBJECTID_1":510,"SLUM_NAME":"Nallan Street","WARD_NO":118,"ZONE_NO":9}},
{"type":"Feature","geometry":{"type":"Point","coordinates":[80.2375922360913,13.0546598843691]},"properties":{"OBJECTID":370,"OBJECTID_1":511,"SLUM_NAME":"Kamarajapuram Extn.","WARD_NO":110,"ZONE_NO":9}},
{"type":"Feature","geometry":{"type":"Point","coordinates":[80.2793156734417,13.0519135208507]},"properties":{"OBJECTID":371,"OBJECTID_1":512,"SLUM_NAME":"Sivarajapuram","WARD_NO":116,"ZONE_NO":9}},
{"type":"Feature","geometry":{"type":"Point","coordinates":[80.2801534018515,13.0515474042424]},"properties":{"OBJECTID":372,"OBJECTID_1":513,"SLUM_NAME":"Ayothi Nagar","WARD_NO":116,"ZONE_NO":9}},
{"type":"Feature","geometry":{"type":"Point","coordinates":[80.2400345415497,13.0522539525315]},"properties":{"OBJECTID":373,"OBJECTID_1":515,"SLUM_NAME":"Thangavel Street (Gokulam Colony)","WARD_NO":113,"ZONE_NO":9}},
{"type":"Feature","geometry":{"type":"Point","coordinates":[80.237986465347,13.051882217358]},"properties":{"OBJECTID":374,"OBJECTID_1":516,"SLUM_NAME":"Dharmapuram","WARD_NO":113,"ZONE_NO":9}},
{"type":"Feature","geometry":{"type":"Point","coordinates":[80.2385313753135,13.0528085088784]},"properties":{"OBJECTID":375,"OBJECTID_1":517,"SLUM_NAME":"Seeranipuram","WARD_NO":113,"ZONE_NO":9}},
{"type":"Feature","geometry":{"type":"Point","coordinates":[80.2301355212421,13.0672784075354]},"properties":{"OBJECTID":376,"OBJECTID_1":518,"SLUM_NAME":"West Namachivaya puram","WARD_NO":109,"ZONE_NO":9}},
{"type":"Feature","geometry":{"type":"Point","coordinates":[80.2322267246634,13.0671574777188]},"properties":{"OBJECTID":377,"OBJECTID_1":519,"SLUM_NAME":"East Namachivaya puram","WARD_NO":109,"ZONE_NO":9}},
{"type":"Feature","geometry":{"type":"Point","coordinates":[80.2466431524476,13.0408505658083]},"properties":{"OBJECTID":378,"OBJECTID_1":520,"SLUM_NAME":"Thiru.Vi.Ka.Nagar","WARD_NO":117,"ZONE_NO":9}},
{"type":"Feature","geometry":{"type":"Point","coordinates":[80.2471355073767,13.0488750832075]},"properties":{"OBJECTID":379,"OBJECTID_1":521,"SLUM_NAME":"M.K.R Nagar","WARD_NO":117,"ZONE_NO":9}},
{"type":"Feature","geometry":{"type":"Point","coordinates":[80.2360210134891,13.0498369568164]},"properties":{"OBJECTID":380,"OBJECTID_1":522,"SLUM_NAME":"Sarangapani Street","WARD_NO":117,"ZONE_NO":9}},
{"type":"Feature","geometry":{"type":"Point","coordinates":[80.2354243282228,13.0490869808886]},"properties":{"OBJECTID":381,"OBJECTID_1":523,"SLUM_NAME":"Ramakathupuram","WARD_NO":117,"ZONE_NO":9}},
{"type":"Feature","geometry":{"type":"Point","coordinates":[80.2438987013382,13.0359076341569]},"properties":{"OBJECTID":382,"OBJECTID_1":524,"SLUM_NAME":"Dr. Thomas Road","WARD_NO":117,"ZONE_NO":9}},
{"type":"Feature","geometry":{"type":"Point","coordinates":[80.2473097769486,13.0461508784284]},"properties":{"OBJECTID":383,"OBJECTID_1":525,"SLUM_NAME":"S.S Puram","WARD_NO":117,"ZONE_NO":9}},
{"type":"Feature","geometry":{"type":"Point","coordinates":[80.2511351950938,13.0206346523802]},"properties":{"OBJECTID":384,"OBJECTID_1":526,"SLUM_NAME":"Dr.Radhakrishnapuram","WARD_NO":122,"ZONE_NO":9}},
{"type":"Feature","geometry":{"type":"Point","coordinates":[80.2501122780899,13.0355446689554]},"properties":{"OBJECTID":385,"OBJECTID_1":527,"SLUM_NAME":"Kavinjar Bharathidasan Road","WARD_NO":122,"ZONE_NO":9}},
{"type":"Feature","geometry":{"type":"Point","coordinates":[80.2326744997982,13.0486940753137]},"properties":{"OBJECTID":386,"OBJECTID_1":528,"SLUM_NAME":"Ramakrishnapuram","WARD_NO":117,"ZONE_NO":9}},
{"type":"Feature","geometry":{"type":"Point","coordinates":[80.2299770880704,13.0663705919748]},"properties":{"OBJECTID":387,"OBJECTID_1":531,"SLUM_NAME":"Thiruvengadapuram","WARD_NO":109,"ZONE_NO":9}},
{"type":"Feature","geometry":{"type":"Point","coordinates":[80.246004810505,13.0538289963478]},"properties":{"OBJECTID":388,"OBJECTID_1":532,"SLUM_NAME":"Grama Street","WARD_NO":113,"ZONE_NO":9}},
{"type":"Feature","geometry":{"type":"Point","coordinates":[80.2465648606773,13.0477050413188]},"properties":{"OBJECTID":389,"OBJECTID_1":533,"SLUM_NAME":"Giriyappa Road Huts","WARD_NO":117,"ZONE_NO":9}},
{"type":"Feature","geometry":{"type":"Point","coordinates":[80.1905204577112,13.0483993742823]},"properties":{"OBJECTID":390,"OBJECTID_1":534,"SLUM_NAME":"Aranganathan Nagar","WARD_NO":128,"ZONE_NO":10}},
{"type":"Feature","geometry":{"type":"Point","coordinates":[80.2802268768552,13.0588423998745]},"properties":{"OBJECTID":391,"OBJECTID_1":536,"SLUM_NAME":"Victoria Hostel Backside","WARD_NO":114,"ZONE_NO":9}},
{"type":"Feature","geometry":{"type":"Point","coordinates":[80.2711671722805,13.0496477410381]},"properties":{"OBJECTID":392,"OBJECTID_1":537,"SLUM_NAME":"Muthaiya Garden","WARD_NO":119,"ZONE_NO":9}},
{"type":"Feature","geometry":{"type":"Point","coordinates":[80.2652604402669,13.027067160158]},"properties":{"OBJECTID":393,"OBJECTID_1":538,"SLUM_NAME":"Andimanyam Thottam","WARD_NO":126,"ZONE_NO":9}},
{"type":"Feature","geometry":{"type":"Point","coordinates":[80.266232980648,13.0300269239284]},"properties":{"OBJECTID":394,"OBJECTID_1":539,"SLUM_NAME":"Pillayar koil Thottam","WARD_NO":124,"ZONE_NO":9}},
{"type":"Feature","geometry":{"type":"Point","coordinates":[80.2768022600403,13.031057092134]},"properties":{"OBJECTID":395,"OBJECTID_1":540,"SLUM_NAME":"Kuil Thottam","WARD_NO":125,"ZONE_NO":9}},
{"type":"Feature","geometry":{"type":"Point","coordinates":[80.2531032412863,13.0228701862581]},"properties":{"OBJECTID":396,"OBJECTID_1":541,"SLUM_NAME":"Canal bank road - NSK puram","WARD_NO":123,"ZONE_NO":9}},
{"type":"Feature","geometry":{"type":"Point","coordinates":[80.2657270126491,13.0353697310886]},"properties":{"OBJECTID":397,"OBJECTID_1":542,"SLUM_NAME":"Pallakkumaniyam","WARD_NO":123,"ZONE_NO":9}},
{"type":"Feature","geometry":{"type":"Point","coordinates":[80.2718476209554,13.033899293663]},"properties":{"OBJECTID":398,"OBJECTID_1":543,"SLUM_NAME":"Mylai Mangolai","WARD_NO":125,"ZONE_NO":9}},
{"type":"Feature","geometry":{"type":"Point","coordinates":[80.2618674172005,13.0302203354722]},"properties":{"OBJECTID":399,"OBJECTID_1":544,"SLUM_NAME":"Sathyavani Muthu Nagar","WARD_NO":124,"ZONE_NO":9}},
{"type":"Feature","geometry":{"type":"Point","coordinates":[80.2768482618677,13.0428619032424]},"properties":{"OBJECTID":400,"OBJECTID_1":545,"SLUM_NAME":"Kailasapuram","WARD_NO":125,"ZONE_NO":9}},
{"type":"Feature","geometry":{"type":"Point","coordinates":[80.2670269593068,13.0340233369834]},"properties":{"OBJECTID":401,"OBJECTID_1":546,"SLUM_NAME":"Lala Thottam","WARD_NO":124,"ZONE_NO":9}},
{"type":"Feature","geometry":{"type":"Point","coordinates":[80.2586039518594,13.0318431100911]},"properties":{"OBJECTID":402,"OBJECTID_1":547,"SLUM_NAME":"Kanni koil puram","WARD_NO":123,"ZONE_NO":9}},
{"type":"Feature","geometry":{"type":"Point","coordinates":[80.2758694719071,13.0418647272134]},"properties":{"OBJECTID":403,"OBJECTID_1":548,"SLUM_NAME":"Arumugam pillai st","WARD_NO":125,"ZONE_NO":9}},
{"type":"Feature","geometry":{"type":"Point","coordinates":[80.2723216601342,13.0413871179887]},"properties":{"OBJECTID":404,"OBJECTID_1":549,"SLUM_NAME":"Sundra Gramani Thottam","WARD_NO":124,"ZONE_NO":9}},
{"type":"Feature","geometry":{"type":"Point","coordinates":[80.267190396993,13.0358220482847]},"properties":{"OBJECTID":405,"OBJECTID_1":550,"SLUM_NAME":"Madavarao Thottam","WARD_NO":123,"ZONE_NO":9}},
{"type":"Feature","geometry":{"type":"Point","coordinates":[80.2696083365477,13.0385044206263]},"properties":{"OBJECTID":406,"OBJECTID_1":551,"SLUM_NAME":"Pattunul Karan Thottam","WARD_NO":124,"ZONE_NO":9}},
{"type":"Feature","geometry":{"type":"Point","coordinates":[80.2697330002513,13.0371604747717]},"properties":{"OBJECTID":407,"OBJECTID_1":552,"SLUM_NAME":"Ramakrishnapuram-6th st","WARD_NO":124,"ZONE_NO":9}},
{"type":"Feature","geometry":{"type":"Point","coordinates":[80.2606493519809,13.0298362375632]},"properties":{"OBJECTID":408,"OBJECTID_1":553,"SLUM_NAME":"Vishalakshipuram","WARD_NO":123,"ZONE_NO":9}},
{"type":"Feature","geometry":{"type":"Point","coordinates":[80.2583542938723,13.0250381544192]},"properties":{"OBJECTID":409,"OBJECTID_1":554,"SLUM_NAME":"Canal bank road - Illuppai thoppu","WARD_NO":123,"ZONE_NO":9}},
{"type":"Feature","geometry":{"type":"Point","coordinates":[80.2756220848611,13.0424857301075]},"properties":{"OBJECTID":410,"OBJECTID_1":556,"SLUM_NAME":"Rutherford puram","WARD_NO":125,"ZONE_NO":9}},
{"type":"Feature","geometry":{"type":"Point","coordinates":[80.273039689829,13.041742491496]},"properties":{"OBJECTID":411,"OBJECTID_1":557,"SLUM_NAME":"Shanmugam pillai st","WARD_NO":124,"ZONE_NO":9}},
{"type":"Feature","geometry":{"type":"Point","coordinates":[80.2755410667039,13.040968620515]},"properties":{"OBJECTID":412,"OBJECTID_1":558,"SLUM_NAME":"Ekambaram pillai st","WARD_NO":125,"ZONE_NO":9}},
{"type":"Feature","geometry":{"type":"Point","coordinates":[80.2696941840479,13.0303801756746]},"properties":{"OBJECTID":413,"OBJECTID_1":559,"SLUM_NAME":"Mosque st","WARD_NO":124,"ZONE_NO":9}},
{"type":"Feature","geometry":{"type":"Point","coordinates":[80.2632133863469,13.0321171740183]},"properties":{"OBJECTID":414,"OBJECTID_1":560,"SLUM_NAME":"Sarathapuram Extension & Kalvai Karai","WARD_NO":124,"ZONE_NO":9}},
{"type":"Feature","geometry":{"type":"Point","coordinates":[80.2671658657992,13.0351267663402]},"properties":{"OBJECTID":415,"OBJECTID_1":561,"SLUM_NAME":"R.A.Puram Canal bank raod - Katchery road","WARD_NO":123,"ZONE_NO":9}},
{"type":"Feature","geometry":{"type":"Point","coordinates":[80.2614325005507,13.0305118637385]},"properties":{"OBJECTID":416,"OBJECTID_1":562,"SLUM_NAME":"Subbrayan Salai","WARD_NO":123,"ZONE_NO":9}},
{"type":"Feature","geometry":{"type":"Point","coordinates":[80.2706679200866,13.0407872191436]},"properties":{"OBJECTID":417,"OBJECTID_1":563,"SLUM_NAME":"Slaughter puram","WARD_NO":124,"ZONE_NO":9}},
{"type":"Feature","geometry":{"type":"Point","coordinates":[80.2704893799239,13.0403645400685]},"properties":{"OBJECTID":418,"OBJECTID_1":564,"SLUM_NAME":"Nattan Thottam","WARD_NO":124,"ZONE_NO":9}},
{"type":"Feature","geometry":{"type":"Point","coordinates":[80.247305344661,13.045238078371]},"properties":{"OBJECTID":419,"OBJECTID_1":565,"SLUM_NAME":"Nakkirar Nagar","WARD_NO":117,"ZONE_NO":9}},
{"type":"Feature","geometry":{"type":"Point","coordinates":[80.2621758456685,13.0504318341848]},"properties":{"OBJECTID":420,"OBJECTID_1":566,"SLUM_NAME":"Avvai Shanmugam Salai","WARD_NO":118,"ZONE_NO":9}},
{"type":"Feature","geometry":{"type":"Point","coordinates":[80.224199055891,13.0176637318643]},"properties":{"OBJECTID":421,"OBJECTID_1":567,"SLUM_NAME":"Karunanithi Street","WARD_NO":142,"ZONE_NO":10}},
{"type":"Feature","geometry":{"type":"Point","coordinates":[80.213910067037,13.0269074403445]},"properties":{"OBJECTID":422,"OBJECTID_1":568,"SLUM_NAME":"V.S.M Thottam","WARD_NO":139,"ZONE_NO":10}},
{"type":"Feature","geometry":{"type":"Point","coordinates":[80.212292644978,13.0270761930553]},"properties":{"OBJECTID":423,"OBJECTID_1":569,"SLUM_NAME":"Veethi Mariyamman Koil Street","WARD_NO":139,"ZONE_NO":10}},
{"type":"Feature","geometry":{"type":"Point","coordinates":[80.2236708060797,13.0179660629714]},"properties":{"OBJECTID":424,"OBJECTID_1":571,"SLUM_NAME":"Thideer Nagar","WARD_NO":142,"ZONE_NO":10}},
{"type":"Feature","geometry":{"type":"Point","coordinates":[80.2126752715935,13.0278990412732]},"properties":{"OBJECTID":425,"OBJECTID_1":572,"SLUM_NAME":"Muthamil Nagar","WARD_NO":139,"ZONE_NO":10}},
{"type":"Feature","geometry":{"type":"Point","coordinates":[80.223978768322,13.0345324639036]},"properties":{"OBJECTID":426,"OBJECTID_1":573,"SLUM_NAME":"Ellaiyamman Koil Street","WARD_NO":135,"ZONE_NO":10}},
{"type":"Feature","geometry":{"type":"Point","coordinates":[80.2502456545534,13.0919366397974]},"properties":{"OBJECTID":427,"OBJECTID_1":574,"SLUM_NAME":"Siva Shanmugapuram 'B' Block","WARD_NO":75,"ZONE_NO":6}},
{"type":"Feature","geometry":{"type":"Point","coordinates":[80.2505121254094,13.0941940578525]},"properties":{"OBJECTID":428,"OBJECTID_1":575,"SLUM_NAME":"Siva Shanmugapuram 'A' Block","WARD_NO":75,"ZONE_NO":6}},
{"type":"Feature","geometry":{"type":"Point","coordinates":[80.2808559670487,13.0661973192817]},"properties":{"OBJECTID":429,"OBJECTID_1":576,"SLUM_NAME":"Lock Nagar","WARD_NO":114,"ZONE_NO":9}},
{"type":"Feature","geometry":{"type":"Point","coordinates":[80.2210534998207,13.0185662805566]},"properties":{"OBJECTID":430,"OBJECTID_1":577,"SLUM_NAME":"Samiyar Thottam","WARD_NO":142,"ZONE_NO":10}},
{"type":"Feature","geometry":{"type":"Point","coordinates":[80.2221345980106,13.0310814318154]},"properties":{"OBJECTID":431,"OBJECTID_1":578,"SLUM_NAME":"Adikesava perumal street","WARD_NO":140,"ZONE_NO":10}},
{"type":"Feature","geometry":{"type":"Point","coordinates":[80.2221296518867,13.0169020371169]},"properties":{"OBJECTID":432,"OBJECTID_1":579,"SLUM_NAME":"Dobikhana","WARD_NO":142,"ZONE_NO":10}},
{"type":"Feature","geometry":{"type":"Point","coordinates":[80.1888445921582,13.0546807808416]},"properties":{"OBJECTID":433,"OBJECTID_1":580,"SLUM_NAME":"Erikkarai","WARD_NO":128,"ZONE_NO":10}},
{"type":"Feature","geometry":{"type":"Point","coordinates":[80.2036446014671,13.0579012273701]},"properties":{"OBJECTID":434,"OBJECTID_1":581,"SLUM_NAME":"Dasarathapuram","WARD_NO":129,"ZONE_NO":10}},
{"type":"Feature","geometry":{"type":"Point","coordinates":[80.2136390507057,13.0453595019892]},"properties":{"OBJECTID":435,"OBJECTID_1":582,"SLUM_NAME":"Bajanai Kovil Street","WARD_NO":132,"ZONE_NO":10}},
{"type":"Feature","geometry":{"type":"Point","coordinates":[80.2089289923299,13.0539283106976]},"properties":{"OBJECTID":436,"OBJECTID_1":584,"SLUM_NAME":"Rajangam Madhya Veedhi (Saligramam)","WARD_NO":130,"ZONE_NO":10}},
{"type":"Feature","geometry":{"type":"Point","coordinates":[80.2042934033928,13.0425677754788]},"properties":{"OBJECTID":437,"OBJECTID_1":585,"SLUM_NAME":"Kannigapuram (Kodambakkam)","WARD_NO":131,"ZONE_NO":10}},
{"type":"Feature","geometry":{"type":"Point","coordinates":[80.2018878695722,13.0444204519753]},"properties":{"OBJECTID":438,"OBJECTID_1":586,"SLUM_NAME":"Old Vijayaraghavapuram","WARD_NO":131,"ZONE_NO":10}},
{"type":"Feature","geometry":{"type":"Point","coordinates":[80.2024512381212,13.0321359133313]},"properties":{"OBJECTID":439,"OBJECTID_1":587,"SLUM_NAME":"MGR nagar","WARD_NO":138,"ZONE_NO":10}},
{"type":"Feature","geometry":{"type":"Point","coordinates":[80.2132651485282,13.0283464657968]},"properties":{"OBJECTID":440,"OBJECTID_1":588,"SLUM_NAME":"Appadurai Street","WARD_NO":139,"ZONE_NO":10}},
{"type":"Feature","geometry":{"type":"Point","coordinates":[80.2122418901645,13.0238915315147]},"properties":{"OBJECTID":441,"OBJECTID_1":589,"SLUM_NAME":"Sarathi Nagar","WARD_NO":139,"ZONE_NO":10}},
{"type":"Feature","geometry":{"type":"Point","coordinates":[80.2134441135941,13.028882150643]},"properties":{"OBJECTID":442,"OBJECTID_1":590,"SLUM_NAME":"Erikarai Street I","WARD_NO":139,"ZONE_NO":10}},
{"type":"Feature","geometry":{"type":"Point","coordinates":[80.2801400861241,13.0559958435171]},"properties":{"OBJECTID":443,"OBJECTID_1":591,"SLUM_NAME":"Mattan Kuppam","WARD_NO":116,"ZONE_NO":9}},
{"type":"Feature","geometry":{"type":"Point","coordinates":[80.2762690901562,13.0447328030662]},"properties":{"OBJECTID":444,"OBJECTID_1":592,"SLUM_NAME":"Rotary Nagar","WARD_NO":121,"ZONE_NO":9}},
{"type":"Feature","geometry":{"type":"Point","coordinates":[80.2028918339202,13.0615199633161]},"properties":{"OBJECTID":445,"OBJECTID_1":593,"SLUM_NAME":"Majees Nagar & VV Koil street","WARD_NO":129,"ZONE_NO":10}},
{"type":"Feature","geometry":{"type":"Point","coordinates":[80.2030290938007,13.0484875925397]},"properties":{"OBJECTID":446,"OBJECTID_1":594,"SLUM_NAME":"Mosque Garden & Pathoor Khan/Pattunoolkaran Thotta","WARD_NO":129,"ZONE_NO":10}},
{"type":"Feature","geometry":{"type":"Point","coordinates":[80.2016206225718,13.0613492958166]},"properties":{"OBJECTID":447,"OBJECTID_1":595,"SLUM_NAME":"Shanmuga Sundaram Street","WARD_NO":129,"ZONE_NO":10}},
{"type":"Feature","geometry":{"type":"Point","coordinates":[80.1918170922805,13.0307629275836]},"properties":{"OBJECTID":448,"OBJECTID_1":596,"SLUM_NAME":"Barathi Nagar","WARD_NO":137,"ZONE_NO":10}},
{"type":"Feature","geometry":{"type":"Point","coordinates":[80.2118630490496,13.0453258251854]},"properties":{"OBJECTID":449,"OBJECTID_1":597,"SLUM_NAME":"Ottagapalayam","WARD_NO":132,"ZONE_NO":10}},
{"type":"Feature","geometry":{"type":"Point","coordinates":[80.2082280270322,13.0459593564891]},"properties":{"OBJECTID":450,"OBJECTID_1":598,"SLUM_NAME":"Somasundhara Bharathi Nagar","WARD_NO":132,"ZONE_NO":10}},
{"type":"Feature","geometry":{"type":"Point","coordinates":[80.229385354318,13.0488851181949]},"properties":{"OBJECTID":451,"OBJECTID_1":599,"SLUM_NAME":"Chinna Raja Pillai Thottam","WARD_NO":134,"ZONE_NO":10}},
{"type":"Feature","geometry":{"type":"Point","coordinates":[80.2250512310071,13.0464158873144]},"properties":{"OBJECTID":452,"OBJECTID_1":600,"SLUM_NAME":"60 Kudusai","WARD_NO":134,"ZONE_NO":10}},
{"type":"Feature","geometry":{"type":"Point","coordinates":[80.2225127941351,13.0521996547701]},"properties":{"OBJECTID":453,"OBJECTID_1":602,"SLUM_NAME":"Puliyurpuram","WARD_NO":134,"ZONE_NO":10}},
{"type":"Feature","geometry":{"type":"Point","coordinates":[80.2121522077564,13.030156951079]},"properties":{"OBJECTID":454,"OBJECTID_1":603,"SLUM_NAME":"RV Nagar","WARD_NO":139,"ZONE_NO":10}},
{"type":"Feature","geometry":{"type":"Point","coordinates":[80.1956646673723,13.0447725997583]},"properties":{"OBJECTID":455,"OBJECTID_1":604,"SLUM_NAME":"Kambar Nagar & Extn (Ayyavoo Puram)","WARD_NO":137,"ZONE_NO":10}},
{"type":"Feature","geometry":{"type":"Point","coordinates":[80.2068845471175,13.0608069852105]},"properties":{"OBJECTID":456,"OBJECTID_1":605,"SLUM_NAME":"Diwakar Nagar","WARD_NO":129,"ZONE_NO":10}},
{"type":"Feature","geometry":{"type":"Point","coordinates":[80.1872699460764,13.0529154606756]},"properties":{"OBJECTID":457,"OBJECTID_1":606,"SLUM_NAME":"Indra Nagar","WARD_NO":128,"ZONE_NO":10}},
{"type":"Feature","geometry":{"type":"Point","coordinates":[80.1994493343429,13.0446704261688]},"properties":{"OBJECTID":458,"OBJECTID_1":607,"SLUM_NAME":"New Vijayaraghavapuram","WARD_NO":131,"ZONE_NO":10}},
{"type":"Feature","geometry":{"type":"Point","coordinates":[80.2096605201101,13.0395305217206]},"properties":{"OBJECTID":459,"OBJECTID_1":608,"SLUM_NAME":"Kanniyappanagar","WARD_NO":132,"ZONE_NO":10}},
{"type":"Feature","geometry":{"type":"Point","coordinates":[80.2229919052021,13.0477513134413]},"properties":{"OBJECTID":460,"OBJECTID_1":609,"SLUM_NAME":"Sheirkhan Thottam","WARD_NO":134,"ZONE_NO":10}},
{"type":"Feature","geometry":{"type":"Point","coordinates":[80.2274995327201,13.0509793797274]},"properties":{"OBJECTID":461,"OBJECTID_1":610,"SLUM_NAME":"United India Colony","WARD_NO":134,"ZONE_NO":10}},
{"type":"Feature","geometry":{"type":"Point","coordinates":[80.2274073556905,13.0453577954832]},"properties":{"OBJECTID":462,"OBJECTID_1":611,"SLUM_NAME":"Valliyammal Thottam","WARD_NO":134,"ZONE_NO":10}},
{"type":"Feature","geometry":{"type":"Point","coordinates":[80.223395591921,13.0352166766537]},"properties":{"OBJECTID":463,"OBJECTID_1":612,"SLUM_NAME":"Gandhi Street","WARD_NO":135,"ZONE_NO":10}},
{"type":"Feature","geometry":{"type":"Point","coordinates":[80.2316395687257,13.0543069805831]},"properties":{"OBJECTID":464,"OBJECTID_1":613,"SLUM_NAME":"Jandha Thottam","WARD_NO":110,"ZONE_NO":9}},
{"type":"Feature","geometry":{"type":"Point","coordinates":[80.2177607502996,13.0182155649994]},"properties":{"OBJECTID":465,"OBJECTID_1":616,"SLUM_NAME":"Chetti Thottam","WARD_NO":170,"ZONE_NO":13}},
{"type":"Feature","geometry":{"type":"Point","coordinates":[80.2311718312286,13.0559460638119]},"properties":{"OBJECTID":466,"OBJECTID_1":617,"SLUM_NAME":"Zakkira Colony","WARD_NO":112,"ZONE_NO":9}},
{"type":"Feature","geometry":{"type":"Point","coordinates":[80.2480131012222,12.9754112558652]},"properties":{"OBJECTID":467,"OBJECTID_1":618,"SLUM_NAME":"Annai Sathya Nagar","WARD_NO":183,"ZONE_NO":14}},
{"type":"Feature","geometry":{"type":"Point","coordinates":[80.2455086862449,12.9220841613906]},"properties":{"OBJECTID":468,"OBJECTID_1":619,"SLUM_NAME":"Bethel Nagar","WARD_NO":196,"ZONE_NO":15}},
{"type":"Feature","geometry":{"type":"Point","coordinates":[80.262046617625,12.9540632333345]},"properties":{"OBJECTID":469,"OBJECTID_1":620,"SLUM_NAME":"Chinna Neelangarai Kuppam","WARD_NO":192,"ZONE_NO":15}},
{"type":"Feature","geometry":{"type":"Point","coordinates":[80.2562377166375,12.9201428972682]},"properties":{"OBJECTID":470,"OBJECTID_1":621,"SLUM_NAME":"Enjambakkam (Ponniyamman Koil Street)","WARD_NO":196,"ZONE_NO":15}},
{"type":"Feature","geometry":{"type":"Point","coordinates":[80.2483768596234,12.9478955283996]},"properties":{"OBJECTID":471,"OBJECTID_1":622,"SLUM_NAME":"Ganesh Nagar","WARD_NO":193,"ZONE_NO":15}},
{"type":"Feature","geometry":{"type":"Point","coordinates":[80.2494516929626,12.874405563145]},"properties":{"OBJECTID":472,"OBJECTID_1":623,"SLUM_NAME":"Nainar Kuppam","WARD_NO":199,"ZONE_NO":15}},
{"type":"Feature","geometry":{"type":"Point","coordinates":[80.2492889469792,12.9451990659196]},"properties":{"OBJECTID":473,"OBJECTID_1":624,"SLUM_NAME":"Thiruvallluvar Nagar","WARD_NO":192,"ZONE_NO":15}},
{"type":"Feature","geometry":{"type":"Point","coordinates":[80.2482981186955,12.9510831402371]},"properties":{"OBJECTID":474,"OBJECTID_1":625,"SLUM_NAME":"Aringar Anna Nagar -Neelankarai","WARD_NO":193,"ZONE_NO":15}},
{"type":"Feature","geometry":{"type":"Point","coordinates":[80.1844888571782,13.099883981307]},"properties":{"OBJECTID":475,"OBJECTID_1":626,"SLUM_NAME":"Kakkai Nagar(Kakapalam)","WARD_NO":84,"ZONE_NO":7}},
{"type":"Feature","geometry":{"type":"Point","coordinates":[80.1782390801172,13.1044217953316]},"properties":{"OBJECTID":476,"OBJECTID_1":631,"SLUM_NAME":"Koratur(Vanniar Street)","WARD_NO":84,"ZONE_NO":7}},
{"type":"Feature","geometry":{"type":"Point","coordinates":[80.1797751300828,13.1072640568196]},"properties":{"OBJECTID":477,"OBJECTID_1":632,"SLUM_NAME":"Koratur(Station Road)","WARD_NO":84,"ZONE_NO":7}},
{"type":"Feature","geometry":{"type":"Point","coordinates":[80.266788334428,13.098343051587]},"properties":{"OBJECTID":478,"OBJECTID_1":633,"SLUM_NAME":"Mothilal Nehru Street","WARD_NO":77,"ZONE_NO":6}},
{"type":"Feature","geometry":{"type":"Point","coordinates":[80.158961367969,13.1148141260255]},"properties":{"OBJECTID":479,"OBJECTID_1":634,"SLUM_NAME":"Kalyanapuram","WARD_NO":82,"ZONE_NO":7}},
{"type":"Feature","geometry":{"type":"Point","coordinates":[80.1547741183088,13.1154273092883]},"properties":{"OBJECTID":480,"OBJECTID_1":635,"SLUM_NAME":"Kalli Kuppam","WARD_NO":82,"ZONE_NO":7}},
{"type":"Feature","geometry":{"type":"Point","coordinates":[80.1535033839658,13.1154831162961]},"properties":{"OBJECTID":481,"OBJECTID_1":636,"SLUM_NAME":"Thiruvalluvar Nagar","WARD_NO":81,"ZONE_NO":7}},
{"type":"Feature","geometry":{"type":"Point","coordinates":[80.1515730544389,13.116364944602]},"properties":{"OBJECTID":482,"OBJECTID_1":637,"SLUM_NAME":"Indira Nagar","WARD_NO":81,"ZONE_NO":7}},
{"type":"Feature","geometry":{"type":"Point","coordinates":[80.14816821134,13.1155629930504]},"properties":{"OBJECTID":483,"OBJECTID_1":638,"SLUM_NAME":"Uppukaranmedu","WARD_NO":81,"ZONE_NO":7}},
{"type":"Feature","geometry":{"type":"Point","coordinates":[80.1700654979932,13.122497634708]},"properties":{"OBJECTID":484,"OBJECTID_1":639,"SLUM_NAME":"Menambedu(Sabari Iyyappan Nagar)","WARD_NO":82,"ZONE_NO":7}},
{"type":"Feature","geometry":{"type":"Point","coordinates":[80.1688163699294,13.1237535436578]},"properties":{"OBJECTID":485,"OBJECTID_1":640,"SLUM_NAME":"Menambedu(Munusamy Koil Street)","WARD_NO":82,"ZONE_NO":7}},
{"type":"Feature","geometry":{"type":"Point","coordinates":[80.1668079363802,13.1377059944157]},"properties":{"OBJECTID":486,"OBJECTID_1":641,"SLUM_NAME":"Kallikuppam( Sakthi Nagar)","WARD_NO":82,"ZONE_NO":7}},
{"type":"Feature","geometry":{"type":"Point","coordinates":[80.1684345347297,13.1388711395648]},"properties":{"OBJECTID":487,"OBJECTID_1":642,"SLUM_NAME":"Kallikuppam(Srinivasa Nagar)","WARD_NO":82,"ZONE_NO":7}},
{"type":"Feature","geometry":{"type":"Point","coordinates":[80.1783404594886,13.1297120786583]},"properties":{"OBJECTID":488,"OBJECTID_1":643,"SLUM_NAME":"Kallikuppam( Muthamil Nagar)","WARD_NO":82,"ZONE_NO":7}},
{"type":"Feature","geometry":{"type":"Point","coordinates":[80.1672049378368,13.1029268793119]},"properties":{"OBJECTID":489,"OBJECTID_1":644,"SLUM_NAME":"Mangalapuram","WARD_NO":85,"ZONE_NO":7}},
{"type":"Feature","geometry":{"type":"Point","coordinates":[80.1516374708313,13.1080011058104]},"properties":{"OBJECTID":490,"OBJECTID_1":645,"SLUM_NAME":"Shivanantha Nagar","WARD_NO":85,"ZONE_NO":7}},
{"type":"Feature","geometry":{"type":"Point","coordinates":[80.1498340337281,13.1072370491696]},"properties":{"OBJECTID":491,"OBJECTID_1":646,"SLUM_NAME":"M.K.B Nagar","WARD_NO":85,"ZONE_NO":7}},
{"type":"Feature","geometry":{"type":"Point","coordinates":[80.1510346860043,13.1107094821274]},"properties":{"OBJECTID":492,"OBJECTID_1":648,"SLUM_NAME":"Teachers Colony","WARD_NO":85,"ZONE_NO":7}},
{"type":"Feature","geometry":{"type":"Point","coordinates":[80.1545294181237,13.1073002379145]},"properties":{"OBJECTID":493,"OBJECTID_1":649,"SLUM_NAME":"Dobi Colony","WARD_NO":85,"ZONE_NO":7}},
{"type":"Feature","geometry":{"type":"Point","coordinates":[80.1543403640789,13.1077990647288]},"properties":{"OBJECTID":494,"OBJECTID_1":650,"SLUM_NAME":"Kamarajapuram - Part I","WARD_NO":85,"ZONE_NO":7}},
{"type":"Feature","geometry":{"type":"Point","coordinates":[80.1549506947543,13.1077442402514]},