{"type":"FeatureCollection", "features":[
{"type":"Feature","geometry":{"type":"Point","coordinates":[80.2437705,13.1043701]},"properties":{"tessellate":-1,"extrude":0,"visibility":-1,"OBJECTID":44,"OID_":0,"ZONE":6,"DIVISION":71,"LAT":13.1043701,"LONG_":80.2437705,"name":"Engangipuram"}},
{"type":"Feature","geometry":{"type":"Point","coordinates":[80.2698898,13.1002112]},"properties":{"tessellate":-1,"extrude":0,"visibility":-1,"OBJECTID":45,"OID_":0,"ZONE":6,"DIVISION":72,"LAT":13.1002112,"LONG_":80.2698898,"name":"Basin Bridge Road"}},
{"type":"Feature","geometry":{"type":"Point","coordinates":[80.2642679,13.1083618]},"properties":{"tessellate":-1,"extrude":0,"visibility":-1,"OBJECTID":46,"OID_":0,"ZONE":6,"DIVISION":72,"LAT":13.1083618,"LONG_":80.2642679,"name":"Doss Nagar Pallam"}},
{"type":"Feature","geometry":{"type":"Point","coordinates":[80.2632487,13.1036073]},"properties":{"tessellate":-1,"extrude":0,"visibility":-1,"OBJECTID":47,"OID_":0,"ZONE":6,"DIVISION":72,"LAT":13.1036073,"LONG_":80.2632487,"name":"Ambedkar Nagar"}},
{"type":"Feature","geometry":{"type":"Point","coordinates":[80.2646434,13.1021026]},"properties":{"tessellate":-1,"extrude":0,"visibility":-1,"OBJECTID":48,"OID_":0,"ZONE":6,"DIVISION":72,"LAT":13.1021026,"LONG_":80.2646434,"name":"Decastor Road"}},
{"type":"Feature","geometry":{"type":"Point","coordinates":[80.2644289,13.1046836]},"properties":{"tessellate":-1,"extrude":0,"visibility":-1,"OBJECTID":49,"OID_":0,"ZONE":6,"DIVISION":72,"LAT":13.1046836,"LONG_":80.2644289,"name":"Nehru Nagar"}},
{"type":"Feature","geometry":{"type":"Point","coordinates":[80.2622938,13.1089887]},"properties":{"tessellate":-1,"extrude":0,"visibility":-1,"OBJECTID":50,"OID_":0,"ZONE":6,"DIVISION":72,"LAT":13.1089887,"LONG_":80.2622938,"name":"Kannikapuram Main Road"}},
{"type":"Feature","geometry":{"type":"Point","coordinates":[80.26577,13.1048717]},"properties":{"tessellate":-1,"extrude":0,"visibility":-1,"OBJECTID":51,"OID_":0,"ZONE":6,"DIVISION":72,"LAT":13.1048717,"LONG_":80.26577,"name":"Narasima Nagar"}},
{"type":"Feature","geometry":{"type":"Point","coordinates":[80.2615428,13.1009427]},"properties":{"tessellate":-1,"extrude":0,"visibility":-1,"OBJECTID":52,"OID_":0,"ZONE":6,"DIVISION":73,"LAT":13.1009427,"LONG_":80.2615428,"name":"Mannar Swamy Street"}},
{"type":"Feature","geometry":{"type":"Point","coordinates":[80.2610707,13.1015801]},"properties":{"tessellate":-1,"extrude":0,"visibility":-1,"OBJECTID":53,"OID_":0,"ZONE":6,"DIVISION":73,"LAT":13.1015801,"LONG_":80.2610707,"name":"Thiru Venkadam Street"}},
{"type":"Feature","geometry":{"type":"Point","coordinates":[80.2619934,13.1013189]},"properties":{"tessellate":-1,"extrude":0,"visibility":-1,"OBJECTID":54,"OID_":0,"ZONE":6,"DIVISION":73,"LAT":13.1013189,"LONG_":80.2619934,"name":"Ramaswamy Street"}},
{"type":"Feature","geometry":{"type":"Point","coordinates":[80.2624655,13.1014233]},"properties":{"tessellate":-1,"extrude":0,"visibility":-1,"OBJECTID":55,"OID_":0,"ZONE":6,"DIVISION":73,"LAT":13.1014233,"LONG_":80.2624655,"name":"Narayanaswamy Street"}},
{"type":"Feature","geometry":{"type":"Point","coordinates":[80.2631521,13.1005978]},"properties":{"tessellate":-1,"extrude":0,"visibility":-1,"OBJECTID":56,"OID_":0,"ZONE":6,"DIVISION":73,"LAT":13.1005978,"LONG_":80.2631521,"name":"Ammiyanmal Street"}},
{"type":"Feature","geometry":{"type":"Point","coordinates":[80.2647078,13.0999134]},"properties":{"tessellate":-1,"extrude":0,"visibility":-1,"OBJECTID":57,"OID_":0,"ZONE":6,"DIVISION":73,"LAT":13.0999134,"LONG_":80.2647078,"name":"Lalsingh Street"}},
{"type":"Feature","geometry":{"type":"Point","coordinates":[80.2629,13.1012457]},"properties":{"tessellate":-1,"extrude":0,"visibility":-1,"OBJECTID":58,"OID_":0,"ZONE":6,"DIVISION":73,"LAT":13.1012457,"LONG_":80.2629,"name":"Natchiarammal Lane"}},
{"type":"Feature","geometry":{"type":"Point","coordinates":[80.2414155,13.0950281]},"properties":{"tessellate":-1,"extrude":0,"visibility":-1,"OBJECTID":59,"OID_":0,"ZONE":6,"DIVISION":74,"LAT":13.0950281,"LONG_":80.2414155,"name":"M.T.Road"}},
{"type":"Feature","geometry":{"type":"Point","coordinates":[80.2452135,13.0962455]},"properties":{"tessellate":-1,"extrude":0,"visibility":-1,"OBJECTID":60,"OID_":0,"ZONE":6,"DIVISION":74,"LAT":13.0962455,"LONG_":80.2452135,"name":"Subbrayan 5th Street"}},
{"type":"Feature","geometry":{"type":"Point","coordinates":[80.2440012,13.092144]},"properties":{"tessellate":-1,"extrude":0,"visibility":-1,"OBJECTID":61,"OID_":0,"ZONE":6,"DIVISION":74,"LAT":13.092144,"LONG_":80.2440012,"name":"Secretariate Colony 6th St"}},
{"type":"Feature","geometry":{"type":"Point","coordinates":[80.2531743,13.0972121]},"properties":{"tessellate":-1,"extrude":0,"visibility":-1,"OBJECTID":62,"OID_":0,"ZONE":6,"DIVISION":75,"LAT":13.0972121,"LONG_":80.2531743,"name":"Kannapa Street"}},
{"type":"Feature","geometry":{"type":"Point","coordinates":[80.2538395,13.0960627]},"properties":{"tessellate":-1,"extrude":0,"visibility":-1,"OBJECTID":63,"OID_":0,"ZONE":6,"DIVISION":75,"LAT":13.0960627,"LONG_":80.2538395,"name":"Edward Park"}},
{"type":"Feature","geometry":{"type":"Point","coordinates":[80.2525628,13.0967001]},"properties":{"tessellate":-1,"extrude":0,"visibility":-1,"OBJECTID":64,"OID_":0,"ZONE":6,"DIVISION":75,"LAT":13.0967001,"LONG_":80.2525628,"name":"Chellppa Street"}},
{"type":"Feature","geometry":{"type":"Point","coordinates":[80.259161,13.0968255]},"properties":{"tessellate":-1,"extrude":0,"visibility":-1,"OBJECTID":65,"OID_":0,"ZONE":6,"DIVISION":76,"LAT":13.0968255,"LONG_":80.259161,"name":"Perambur Barackks Road"}},
{"type":"Feature","geometry":{"type":"Point","coordinates":[80.2600944,13.1010367]},"properties":{"tessellate":-1,"extrude":0,"visibility":-1,"OBJECTID":66,"OID_":0,"ZONE":6,"DIVISION":76,"LAT":13.1010367,"LONG_":80.2600944,"name":"Dr.Ambedkar Collage Road"}},
{"type":"Feature","geometry":{"type":"Point","coordinates":[80.260824,13.0970763]},"properties":{"tessellate":-1,"extrude":0,"visibility":-1,"OBJECTID":67,"OID_":0,"ZONE":6,"DIVISION":76,"LAT":13.0970763,"LONG_":80.260824,"name":"Strahans Road"}},
{"type":"Feature","geometry":{"type":"Point","coordinates":[80.2601588,13.0982885]},"properties":{"tessellate":-1,"extrude":0,"visibility":-1,"OBJECTID":68,"OID_":0,"ZONE":6,"DIVISION":76,"LAT":13.0982885,"LONG_":80.2601588,"name":"Barracks Gate Road"}},
{"type":"Feature","geometry":{"type":"Point","coordinates":[80.2630877,13.0968673]},"properties":{"tessellate":-1,"extrude":0,"visibility":-1,"OBJECTID":69,"OID_":0,"ZONE":6,"DIVISION":77,"LAT":13.0968673,"LONG_":80.2630877,"name":"Demellous Road"}},
{"type":"Feature","geometry":{"type":"Point","coordinates":[80.2716815,13.0926664]},"properties":{"tessellate":-1,"extrude":0,"visibility":-1,"OBJECTID":70,"OID_":0,"ZONE":6,"DIVISION":77,"LAT":13.0926664,"LONG_":80.2716815,"name":"Elephant Gate Bridge Road"}},
{"type":"Feature","geometry":{"type":"Point","coordinates":[80.2673149,13.0905347]},"properties":{"tessellate":-1,"extrude":0,"visibility":-1,"OBJECTID":71,"OID_":0,"ZONE":6,"DIVISION":78,"LAT":13.0905347,"LONG_":80.2673149,"name":"Choolai High Road"}},
{"type":"Feature","geometry":{"type":"Point","coordinates":[80.2612424,13.0934815]},"properties":{"tessellate":-1,"extrude":0,"visibility":-1,"OBJECTID":72,"OID_":0,"ZONE":6,"DIVISION":78,"LAT":13.0934815,"LONG_":80.2612424,"name":"Astabujam Road"}},
{"type":"Feature","geometry":{"type":"Point","coordinates":[80.2699757,13.0899704]},"properties":{"tessellate":-1,"extrude":0,"visibility":-1,"OBJECTID":73,"OID_":0,"ZONE":6,"DIVISION":78,"LAT":13.0899704,"LONG_":80.2699757,"name":"Sydnams Road"}},
{"type":"Feature","geometry":{"type":"Point","coordinates":[80.2513504,13.1071914]},"properties":{"tessellate":-1,"extrude":0,"visibility":-1,"OBJECTID":74,"OID_":0,"ZONE":6,"DIVISION":70,"LAT":13.1071914,"LONG_":80.2513504,"name":"Arundhathi Nagar"}},
{"type":"Feature","geometry":{"type":"Point","coordinates":[80.2047658,13.1133774]},"properties":{"tessellate":-1,"extrude":0,"visibility":-1,"OBJECTID":75,"OID_":0,"ZONE":6,"DIVISION":65,"LAT":13.1133774,"LONG_":80.2047658,"name":"Raja Mangalam Street"}},
{"type":"Feature","geometry":{"type":"Point","coordinates":[80.189752,13.117143]},"properties":{"tessellate":-1,"extrude":0,"visibility":-1,"OBJECTID":76,"OID_":0,"ZONE":7,"DIVISION":83,"LAT":13.117143,"LONG_":80.189752,"name":"NAS Garden"}},
{"type":"Feature","geometry":{"type":"Point","coordinates":[80.1850442,13.1096243]},"properties":{"tessellate":-1,"extrude":0,"visibility":-1,"OBJECTID":77,"OID_":0,"ZONE":7,"DIVISION":83,"LAT":13.10962434,"LONG_":80.18504421,"name":"TNEB 30th Street"}},
{"type":"Feature","geometry":{"type":"Point","coordinates":[80.183569,13.1093073]},"properties":{"tessellate":-1,"extrude":0,"visibility":-1,"OBJECTID":78,"OID_":0,"ZONE":7,"DIVISION":83,"LAT":13.10930728,"LONG_":80.18356895,"name":"TNEB 31th Street"}},
{"type":"Feature","geometry":{"type":"Point","coordinates":[80.1824587,13.1092926]},"properties":{"tessellate":-1,"extrude":0,"visibility":-1,"OBJECTID":79,"OID_":0,"ZONE":7,"DIVISION":83,"LAT":13.10929262,"LONG_":80.18245868,"name":"TNEB 32nd Street"}},
{"type":"Feature","geometry":{"type":"Point","coordinates":[80.1814829,13.1089876]},"properties":{"tessellate":-1,"extrude":0,"visibility":-1,"OBJECTID":80,"OID_":0,"ZONE":7,"DIVISION":83,"LAT":13.10898761,"LONG_":80.18148294,"name":"TNEB 35th Street"}},
{"type":"Feature","geometry":{"type":"Point","coordinates":[80.1809558,13.1093912]},"properties":{"tessellate":-1,"extrude":0,"visibility":-1,"OBJECTID":81,"OID_":0,"ZONE":7,"DIVISION":83,"LAT":13.10939121,"LONG_":80.18095579,"name":"TNEB 36th Street"}},
{"type":"Feature","geometry":{"type":"Point","coordinates":[80.1816352,13.1096943]},"properties":{"tessellate":-1,"extrude":0,"visibility":-1,"OBJECTID":82,"OID_":0,"ZONE":7,"DIVISION":83,"LAT":13.1096943,"LONG_":80.18163516,"name":"TNEB 37th Street"}},
{"type":"Feature","geometry":{"type":"Point","coordinates":[80.1803479,13.1095298]},"properties":{"tessellate":-1,"extrude":0,"visibility":-1,"OBJECTID":83,"OID_":0,"ZONE":7,"DIVISION":83,"LAT":13.10952984,"LONG_":80.1803479,"name":"TNEB 33rd Street"}},
{"type":"Feature","geometry":{"type":"Point","coordinates":[80.1820224,13.1092701]},"properties":{"tessellate":-1,"extrude":0,"visibility":-1,"OBJECTID":84,"OID_":0,"ZONE":7,"DIVISION":83,"LAT":13.10927011,"LONG_":80.18202243,"name":"TNEB 34th Street"}},
{"type":"Feature","geometry":{"type":"Point","coordinates":[80.1924747,13.1183353]},"properties":{"tessellate":-1,"extrude":0,"visibility":-1,"OBJECTID":85,"OID_":0,"ZONE":7,"DIVISION":83,"LAT":13.11833527,"LONG_":80.19247467,"name":"agragaram korattur"}},
{"type":"Feature","geometry":{"type":"Point","coordinates":[80.1833998,13.1076947]},"properties":{"tessellate":-1,"extrude":0,"visibility":-1,"OBJECTID":86,"OID_":0,"ZONE":7,"DIVISION":84,"LAT":13.10769474,"LONG_":80.18339979,"name":"Central Avenue"}},
{"type":"Feature","geometry":{"type":"Point","coordinates":[80.2578735,13.1412538]},"properties":{"tessellate":-1,"extrude":0,"visibility":-1,"OBJECTID":174,"OID_":0,"ZONE":4,"DIVISION":34,"LAT":13.1412538,"LONG_":80.2578735,"name":"Thendral Nagar"}},
{"type":"Feature","geometry":{"type":"Point","coordinates":[80.2517152,13.132791]},"properties":{"tessellate":-1,"extrude":0,"visibility":-1,"OBJECTID":175,"OID_":0,"ZONE":4,"DIVISION":35,"LAT":13.132791,"LONG_":80.2517152,"name":"Muthamil Nagar 8th Block"}},
{"type":"Feature","geometry":{"type":"Point","coordinates":[80.2592897,13.1230321]},"properties":{"tessellate":-1,"extrude":0,"visibility":-1,"OBJECTID":176,"OID_":0,"ZONE":4,"DIVISION":36,"LAT":13.1230321,"LONG_":80.2592897,"name":"West Avenue"}},
{"type":"Feature","geometry":{"type":"Point","coordinates":[80.2490759,13.1257487]},"properties":{"tessellate":-1,"extrude":0,"visibility":-1,"OBJECTID":177,"OID_":0,"ZONE":4,"DIVISION":36,"LAT":13.1257487,"LONG_":80.2490759,"name":"Eithiraj Salai"}},
{"type":"Feature","geometry":{"type":"Point","coordinates":[80.2518976,13.1217783]},"properties":{"tessellate":-1,"extrude":0,"visibility":-1,"OBJECTID":178,"OID_":0,"ZONE":4,"DIVISION":36,"LAT":13.1217783,"LONG_":80.2518976,"name":"EH Road"}},
{"type":"Feature","geometry":{"type":"Point","coordinates":[80.2553415,13.1231993]},"properties":{"tessellate":-1,"extrude":0,"visibility":-1,"OBJECTID":179,"OID_":0,"ZONE":4,"DIVISION":36,"LAT":13.1231993,"LONG_":80.2553415,"name":"Sharma Nagar"}},
{"type":"Feature","geometry":{"type":"Point","coordinates":[80.2595901,13.1342328]},"properties":{"tessellate":-1,"extrude":0,"visibility":-1,"OBJECTID":180,"OID_":0,"ZONE":4,"DIVISION":37,"LAT":13.1342328,"LONG_":80.2595901,"name":"Abirami Avenue 14th Street"}},
{"type":"Feature","geometry":{"type":"Point","coordinates":[80.2599335,13.1346716]},"properties":{"tessellate":-1,"extrude":0,"visibility":-1,"OBJECTID":181,"OID_":0,"ZONE":4,"DIVISION":37,"LAT":13.1346716,"LONG_":80.2599335,"name":"Abirami Avenue 16th Street"}},
{"type":"Feature","geometry":{"type":"Point","coordinates":[80.259161,13.134588]},"properties":{"tessellate":-1,"extrude":0,"visibility":-1,"OBJECTID":182,"OID_":0,"ZONE":4,"DIVISION":37,"LAT":13.134588,"LONG_":80.259161,"name":"Abirami Avenue  15th  Street"}},
{"type":"Feature","geometry":{"type":"Point","coordinates":[80.2666712,13.1235336]},"properties":{"tessellate":-1,"extrude":0,"visibility":-1,"OBJECTID":183,"OID_":0,"ZONE":4,"DIVISION":37,"LAT":13.1235336,"LONG_":80.2666712,"name":"MGR Nagar"}},
{"type":"Feature","geometry":{"type":"Point","coordinates":[80.2668428,13.1227395]},"properties":{"tessellate":-1,"extrude":0,"visibility":-1,"OBJECTID":184,"OID_":0,"ZONE":4,"DIVISION":37,"LAT":13.1227395,"LONG_":80.2668428,"name":"Debar Nagar"}},
{"type":"Feature","geometry":{"type":"Point","coordinates":[80.2674222,13.1251845]},"properties":{"tessellate":-1,"extrude":0,"visibility":-1,"OBJECTID":185,"OID_":0,"ZONE":4,"DIVISION":37,"LAT":13.1251845,"LONG_":80.2674222,"name":"Damodhar Nagar"}},
{"type":"Feature","geometry":{"type":"Point","coordinates":[80.2681947,13.1282982]},"properties":{"tessellate":-1,"extrude":0,"visibility":-1,"OBJECTID":186,"OID_":0,"ZONE":4,"DIVISION":37,"LAT":13.1282982,"LONG_":80.2681947,"name":"RR Nagar"}},
{"type":"Feature","geometry":{"type":"Point","coordinates":[80.2565861,13.1335641]},"properties":{"tessellate":-1,"extrude":0,"visibility":-1,"OBJECTID":187,"OID_":0,"ZONE":4,"DIVISION":37,"LAT":13.1335641,"LONG_":80.2565861,"name":"Kannadasan Nagar"}},
{"type":"Feature","geometry":{"type":"Point","coordinates":[80.2746105,13.1271071]},"properties":{"tessellate":-1,"extrude":0,"visibility":-1,"OBJECTID":188,"OID_":0,"ZONE":4,"DIVISION":38,"LAT":13.1271071,"LONG_":80.2746105,"name":"Nehru Nagar 13th Street"}},
{"type":"Feature","geometry":{"type":"Point","coordinates":[80.2772927,13.1266473]},"properties":{"tessellate":-1,"extrude":0,"visibility":-1,"OBJECTID":189,"OID_":0,"ZONE":4,"DIVISION":38,"LAT":13.1266473,"LONG_":80.2772927,"name":"Nehru Nagar Main Road"}},
{"type":"Feature","geometry":{"type":"Point","coordinates":[80.2845669,13.1261458]},"properties":{"tessellate":-1,"extrude":0,"visibility":-1,"OBJECTID":190,"OID_":0,"ZONE":4,"DIVISION":38,"LAT":13.1261458,"LONG_":80.2845669,"name":"Ellaya Mudali Street"}},
{"type":"Feature","geometry":{"type":"Point","coordinates":[80.2791381,13.1353194]},"properties":{"tessellate":-1,"extrude":0,"visibility":-1,"OBJECTID":191,"OID_":0,"ZONE":4,"DIVISION":39,"LAT":13.1353194,"LONG_":80.2791381,"name":"Indira Nagar"}},
{"type":"Feature","geometry":{"type":"Point","coordinates":[80.288558,13.1344]},"properties":{"tessellate":-1,"extrude":0,"visibility":-1,"OBJECTID":192,"OID_":0,"ZONE":4,"DIVISION":40,"LAT":13.1344,"LONG_":80.288558,"name":"Thiruvalluvar Nagar Huts"}},
{"type":"Feature","geometry":{"type":"Point","coordinates":[80.2899313,13.1336477]},"properties":{"tessellate":-1,"extrude":0,"visibility":-1,"OBJECTID":193,"OID_":0,"ZONE":4,"DIVISION":40,"LAT":13.1336477,"LONG_":80.2899313,"name":"Celliamman Koil Street"}},
{"type":"Feature","geometry":{"type":"Point","coordinates":[80.2877856,13.1334387]},"properties":{"tessellate":-1,"extrude":0,"visibility":-1,"OBJECTID":194,"OID_":0,"ZONE":4,"DIVISION":40,"LAT":13.1334387,"LONG_":80.2877856,"name":"VOC Nagar"}},
{"type":"Feature","geometry":{"type":"Point","coordinates":[80.290103,13.1364896]},"properties":{"tessellate":-1,"extrude":0,"visibility":-1,"OBJECTID":195,"OID_":0,"ZONE":4,"DIVISION":40,"LAT":13.1364896,"LONG_":80.290103,"name":"Kamaraj Salai Jn of Ellaya Mudali Street"}},
{"type":"Feature","geometry":{"type":"Point","coordinates":[80.2793312,13.1266264]},"properties":{"tessellate":-1,"extrude":0,"visibility":-1,"OBJECTID":196,"OID_":0,"ZONE":4,"DIVISION":41,"LAT":13.1266264,"LONG_":80.2793312,"name":"Kumaran Nagar"}},
{"type":"Feature","geometry":{"type":"Point","coordinates":[80.2787733,13.1255816]},"properties":{"tessellate":-1,"extrude":0,"visibility":-1,"OBJECTID":197,"OID_":0,"ZONE":4,"DIVISION":41,"LAT":13.1255816,"LONG_":80.2787733,"name":"Carnesh Nagar"}},
{"type":"Feature","geometry":{"type":"Point","coordinates":[80.273838,13.1307222]},"properties":{"tessellate":-1,"extrude":0,"visibility":-1,"OBJECTID":198,"OID_":0,"ZONE":4,"DIVISION":41,"LAT":13.1307222,"LONG_":80.273838,"name":"MGR Nagar Canal Road"}},
{"type":"Feature","geometry":{"type":"Point","coordinates":[80.2784729,13.1246203]},"properties":{"tessellate":-1,"extrude":0,"visibility":-1,"OBJECTID":199,"OID_":0,"ZONE":4,"DIVISION":42,"LAT":13.1246203,"LONG_":80.2784729,"name":"Seniamman Koil Tenaments"}},
{"type":"Feature","geometry":{"type":"Point","coordinates":[80.2955961,13.1232829]},"properties":{"tessellate":-1,"extrude":0,"visibility":-1,"OBJECTID":200,"OID_":0,"ZONE":4,"DIVISION":43,"LAT":13.1232829,"LONG_":80.2955961,"name":"Singaravelan Nagar ( Palla Pagudhi )"}},
{"type":"Feature","geometry":{"type":"Point","coordinates":[80.2927208,13.1233874]},"properties":{"tessellate":-1,"extrude":0,"visibility":-1,"OBJECTID":201,"OID_":0,"ZONE":4,"DIVISION":43,"LAT":13.1233874,"LONG_":80.2927208,"name":"New Amaranjipuram"}},
{"type":"Feature","geometry":{"type":"Point","coordinates":[80.2481532,13.1172644]},"properties":{"tessellate":-1,"extrude":0,"visibility":-1,"OBJECTID":202,"OID_":0,"ZONE":4,"DIVISION":44,"LAT":13.1172644,"LONG_":80.2481532,"name":"Manicka Vinayagar Koil Street"}},
{"type":"Feature","geometry":{"type":"Point","coordinates":[80.2486897,13.120608]},"properties":{"tessellate":-1,"extrude":0,"visibility":-1,"OBJECTID":203,"OID_":0,"ZONE":4,"DIVISION":44,"LAT":13.120608,"LONG_":80.2486897,"name":"Manimegai Street"}},
{"type":"Feature","geometry":{"type":"Point","coordinates":[80.257144,13.1119981]},"properties":{"tessellate":-1,"extrude":0,"visibility":-1,"OBJECTID":204,"OID_":0,"ZONE":4,"DIVISION":45,"LAT":13.1119981,"LONG_":80.257144,"name":"Stephens Road"}},
{"type":"Feature","geometry":{"type":"Point","coordinates":[80.2580237,13.1096992]},"properties":{"tessellate":-1,"extrude":0,"visibility":-1,"OBJECTID":205,"OID_":0,"ZONE":4,"DIVISION":45,"LAT":13.1096992,"LONG_":80.2580237,"name":"Stephens Main Road"}},
{"type":"Feature","geometry":{"type":"Point","coordinates":[80.2608991,13.1099083]},"properties":{"tessellate":-1,"extrude":0,"visibility":-1,"OBJECTID":206,"OID_":0,"ZONE":4,"DIVISION":45,"LAT":13.1099083,"LONG_":80.2608991,"name":"Ganesapuram Main Road"}},
{"type":"Feature","geometry":{"type":"Point","coordinates":[80.2633882,13.1112666]},"properties":{"tessellate":-1,"extrude":0,"visibility":-1,"OBJECTID":207,"OID_":0,"ZONE":4,"DIVISION":45,"LAT":13.1112666,"LONG_":80.2633882,"name":"Sundram Power Lane"}},
{"type":"Feature","geometry":{"type":"Point","coordinates":[80.2606845,13.1121235]},"properties":{"tessellate":-1,"extrude":0,"visibility":-1,"OBJECTID":208,"OID_":0,"ZONE":4,"DIVISION":45,"LAT":13.1121235,"LONG_":80.2606845,"name":"Desigananda Puram"}},
{"type":"Feature","geometry":{"type":"Point","coordinates":[80.2587855,13.1146939]},"properties":{"tessellate":-1,"extrude":0,"visibility":-1,"OBJECTID":209,"OID_":0,"ZONE":4,"DIVISION":45,"LAT":13.1146939,"LONG_":80.2587855,"name":"B.V Colony 19 Street"}},
{"type":"Feature","geometry":{"type":"Point","coordinates":[80.2587372,13.1153522]},"properties":{"tessellate":-1,"extrude":0,"visibility":-1,"OBJECTID":210,"OID_":0,"ZONE":4,"DIVISION":45,"LAT":13.1153522,"LONG_":80.2587372,"name":"B.V Colony  20th Street"}},
{"type":"Feature","geometry":{"type":"Point","coordinates":[80.2596545,13.1156082]},"properties":{"tessellate":-1,"extrude":0,"visibility":-1,"OBJECTID":211,"OID_":0,"ZONE":4,"DIVISION":45,"LAT":13.1156082,"LONG_":80.2596545,"name":"Annai Sathya Nagar"}},
{"type":"Feature","geometry":{"type":"Point","coordinates":[80.2662849,13.1194586]},"properties":{"tessellate":-1,"extrude":0,"visibility":-1,"OBJECTID":212,"OID_":0,"ZONE":4,"DIVISION":46,"LAT":13.1194586,"LONG_":80.2662849,"name":"Masuthi Street"}},
{"type":"Feature","geometry":{"type":"Point","coordinates":[80.2746534,13.1162195]},"properties":{"tessellate":-1,"extrude":0,"visibility":-1,"OBJECTID":213,"OID_":0,"ZONE":4,"DIVISION":47,"LAT":13.1162195,"LONG_":80.2746534,"name":"Meenambal Nagar  "}},
{"type":"Feature","geometry":{"type":"Point","coordinates":[80.2764559,13.1187481]},"properties":{"tessellate":-1,"extrude":0,"visibility":-1,"OBJECTID":214,"OID_":0,"ZONE":4,"DIVISION":47,"LAT":13.1187481,"LONG_":80.2764559,"name":"KH Road"}},
{"type":"Feature","geometry":{"type":"Point","coordinates":[80.2617359,13.1156761]},"properties":{"tessellate":-1,"extrude":0,"visibility":-1,"OBJECTID":215,"OID_":0,"ZONE":4,"DIVISION":46,"LAT":13.1156761,"LONG_":80.2617359,"name":"Moorthingar Street (Erikarai)"}},
{"type":"Feature","geometry":{"type":"Point","coordinates":[80.1862835,13.1037108]},"properties":{"tessellate":-1,"extrude":0,"visibility":-1,"OBJECTID":87,"OID_":0,"ZONE":7,"DIVISION":84,"LAT":13.10371081,"LONG_":80.18628354,"name":"East Avenue"}},
{"type":"Feature","geometry":{"type":"Point","coordinates":[80.1855849,13.1037744]},"properties":{"tessellate":-1,"extrude":0,"visibility":-1,"OBJECTID":88,"OID_":0,"ZONE":7,"DIVISION":84,"LAT":13.10377441,"LONG_":80.1855849,"name":"TNEB 2nd Street"}},
{"type":"Feature","geometry":{"type":"Point","coordinates":[80.1855107,13.105865]},"properties":{"tessellate":-1,"extrude":0,"visibility":-1,"OBJECTID":89,"OID_":0,"ZONE":7,"DIVISION":84,"LAT":13.10586499,"LONG_":80.18551071,"name":"TNEB 11th Street"}},
{"type":"Feature","geometry":{"type":"Point","coordinates":[80.1832679,13.106438]},"properties":{"tessellate":-1,"extrude":0,"visibility":-1,"OBJECTID":90,"OID_":0,"ZONE":7,"DIVISION":84,"LAT":13.10643802,"LONG_":80.1832679,"name":"TNEB 17th Street"}},
{"type":"Feature","geometry":{"type":"Point","coordinates":[80.1823306,13.107704]},"properties":{"tessellate":-1,"extrude":0,"visibility":-1,"OBJECTID":91,"OID_":0,"ZONE":7,"DIVISION":84,"LAT":13.10770401,"LONG_":80.18233055,"name":"TNEB 18th Street"}},
{"type":"Feature","geometry":{"type":"Point","coordinates":[80.1857152,13.1010599]},"properties":{"tessellate":-1,"extrude":0,"visibility":-1,"OBJECTID":92,"OID_":0,"ZONE":7,"DIVISION":84,"LAT":13.10105993,"LONG_":80.18571523,"name":"Shanthi Nagar"}},
{"type":"Feature","geometry":{"type":"Point","coordinates":[80.1704135,13.1058202]},"properties":{"tessellate":-1,"extrude":0,"visibility":-1,"OBJECTID":93,"OID_":0,"ZONE":7,"DIVISION":84,"LAT":13.10582024,"LONG_":80.17041354,"name":"Bajanai Koil Street"}},
{"type":"Feature","geometry":{"type":"Point","coordinates":[80.298452,13.165205]},"properties":{"tessellate":-1,"extrude":0,"visibility":-1,"OBJECTID":94,"OID_":0,"ZONE":1,"DIVISION":7,"LAT":13.165205,"LONG_":80.298452,"name":"Anna Nagar"}},
{"type":"Feature","geometry":{"type":"Point","coordinates":[80.298665,13.170495]},"properties":{"tessellate":-1,"extrude":0,"visibility":-1,"OBJECTID":95,"OID_":0,"ZONE":1,"DIVISION":7,"LAT":13.170495,"LONG_":80.298665,"name":"Annamalai Nagar"}},
{"type":"Feature","geometry":{"type":"Point","coordinates":[80.295193,13.171062]},"properties":{"tessellate":-1,"extrude":0,"visibility":-1,"OBJECTID":96,"OID_":0,"ZONE":1,"DIVISION":7,"LAT":13.171062,"LONG_":80.295193,"name":"Charles Nagar"}},
{"type":"Feature","geometry":{"type":"Point","coordinates":[80.291363,13.17199]},"properties":{"tessellate":-1,"extrude":0,"visibility":-1,"OBJECTID":97,"OID_":0,"ZONE":1,"DIVISION":7,"LAT":13.17199,"LONG_":80.291363,"name":"Rajaji Nagar"}},
{"type":"Feature","geometry":{"type":"Point","coordinates":[80.301936,13.173871]},"properties":{"tessellate":-1,"extrude":0,"visibility":-1,"OBJECTID":98,"OID_":0,"ZONE":1,"DIVISION":6,"LAT":13.173871,"LONG_":80.301936,"name":"DR.Ambedkar Nagar"}},
{"type":"Feature","geometry":{"type":"Point","coordinates":[80.290768,13.163506]},"properties":{"tessellate":-1,"extrude":0,"visibility":-1,"OBJECTID":99,"OID_":0,"ZONE":1,"DIVISION":7,"LAT":13.163506,"LONG_":80.290768,"name":"Vetri Vinayagar Nagar"}},
{"type":"Feature","geometry":{"type":"Point","coordinates":[80.300026,13.169985]},"properties":{"tessellate":-1,"extrude":0,"visibility":-1,"OBJECTID":100,"OID_":0,"ZONE":1,"DIVISION":6,"LAT":13.169985,"LONG_":80.300026,"name":"Sivasakthi Nagar"}},
{"type":"Feature","geometry":{"type":"Point","coordinates":[80.298724,13.160194]},"properties":{"tessellate":-1,"extrude":0,"visibility":-1,"OBJECTID":101,"OID_":0,"ZONE":1,"DIVISION":10,"LAT":13.160194,"LONG_":80.298724,"name":"Nandiodai Kuppam"}},
{"type":"Feature","geometry":{"type":"Point","coordinates":[80.324509,13.224343]},"properties":{"tessellate":-1,"extrude":0,"visibility":-1,"OBJECTID":102,"OID_":0,"ZONE":1,"DIVISION":1,"LAT":13.224343,"LONG_":80.324509,"name":"Sathyavanimuthu Nagar"}},
{"type":"Feature","geometry":{"type":"Point","coordinates":[80.324751,13.22542]},"properties":{"tessellate":-1,"extrude":0,"visibility":-1,"OBJECTID":103,"OID_":0,"ZONE":1,"DIVISION":1,"LAT":13.22542,"LONG_":80.324751,"name":"Ulaganathapuram"}},
{"type":"Feature","geometry":{"type":"Point","coordinates":[80.32347,13.211646]},"properties":{"tessellate":-1,"extrude":0,"visibility":-1,"OBJECTID":104,"OID_":0,"ZONE":1,"DIVISION":2,"LAT":13.211646,"LONG_":80.32347,"name":"Periyakuppam"}},
{"type":"Feature","geometry":{"type":"Point","coordinates":[80.312552,13.189592]},"properties":{"tessellate":-1,"extrude":0,"visibility":-1,"OBJECTID":105,"OID_":0,"ZONE":1,"DIVISION":3,"LAT":13.189592,"LONG_":80.312552,"name":"KVK Kuppam"}},
{"type":"Feature","geometry":{"type":"Point","coordinates":[80.317739,13.197836]},"properties":{"tessellate":-1,"extrude":0,"visibility":-1,"OBJECTID":106,"OID_":0,"ZONE":1,"DIVISION":3,"LAT":13.197836,"LONG_":80.317739,"name":"Annai Sivagami Nagar"}},
{"type":"Feature","geometry":{"type":"Point","coordinates":[80.307265,13.191289]},"properties":{"tessellate":-1,"extrude":0,"visibility":-1,"OBJECTID":107,"OID_":0,"ZONE":1,"DIVISION":4,"LAT":13.191289,"LONG_":80.307265,"name":"Mettu Street"}},
{"type":"Feature","geometry":{"type":"Point","coordinates":[80.305639,13.18806]},"properties":{"tessellate":-1,"extrude":0,"visibility":-1,"OBJECTID":108,"OID_":0,"ZONE":1,"DIVISION":4,"LAT":13.18806,"LONG_":80.305639,"name":"Brindavan Nagar Extension"}},
{"type":"Feature","geometry":{"type":"Point","coordinates":[80.295672,13.179024]},"properties":{"tessellate":-1,"extrude":0,"visibility":-1,"OBJECTID":109,"OID_":0,"ZONE":1,"DIVISION":6,"LAT":13.179024,"LONG_":80.295672,"name":"TKP Nagar"}},
{"type":"Feature","geometry":{"type":"Point","coordinates":[80.29629,13.17956]},"properties":{"tessellate":-1,"extrude":0,"visibility":-1,"OBJECTID":110,"OID_":0,"ZONE":1,"DIVISION":4,"LAT":13.17956,"LONG_":80.29629,"name":"VP Nagar"}},
{"type":"Feature","geometry":{"type":"Point","coordinates":[80.29937,13.179782]},"properties":{"tessellate":-1,"extrude":0,"visibility":-1,"OBJECTID":111,"OID_":0,"ZONE":1,"DIVISION":4,"LAT":13.179782,"LONG_":80.29937,"name":"Jothi Nagar 2nd Str"}},
{"type":"Feature","geometry":{"type":"Point","coordinates":[80.297522,13.180765]},"properties":{"tessellate":-1,"extrude":0,"visibility":-1,"OBJECTID":112,"OID_":0,"ZONE":1,"DIVISION":4,"LAT":13.180765,"LONG_":80.297522,"name":"Sadyankuppam Pattai"}},
{"type":"Feature","geometry":{"type":"Point","coordinates":[80.312169,13.175622]},"properties":{"tessellate":-1,"extrude":0,"visibility":-1,"OBJECTID":113,"OID_":0,"ZONE":1,"DIVISION":5,"LAT":13.175622,"LONG_":80.312169,"name":"Palahai Thotti Kuppam"}},
{"type":"Feature","geometry":{"type":"Point","coordinates":[80.311202,13.17876]},"properties":{"tessellate":-1,"extrude":0,"visibility":-1,"OBJECTID":114,"OID_":0,"ZONE":1,"DIVISION":5,"LAT":13.17876,"LONG_":80.311202,"name":"Sakthipuram"}},
{"type":"Feature","geometry":{"type":"Point","coordinates":[80.30686,13.180185]},"properties":{"tessellate":-1,"extrude":0,"visibility":-1,"OBJECTID":115,"OID_":0,"ZONE":1,"DIVISION":5,"LAT":13.180185,"LONG_":80.30686,"name":"Chinaernavur"}},
{"type":"Feature","geometry":{"type":"Point","coordinates":[80.305585,13.172978]},"properties":{"tessellate":-1,"extrude":0,"visibility":-1,"OBJECTID":116,"OID_":0,"ZONE":1,"DIVISION":5,"LAT":13.172978,"LONG_":80.305585,"name":"Wimco Nagar Ajax"}},
{"type":"Feature","geometry":{"type":"Point","coordinates":[80.30719,13.181177]},"properties":{"tessellate":-1,"extrude":0,"visibility":-1,"OBJECTID":117,"OID_":0,"ZONE":1,"DIVISION":6,"LAT":13.181177,"LONG_":80.30719,"name":"Kalaignar Nagar"}},
{"type":"Feature","geometry":{"type":"Point","coordinates":[80.300195,13.172369]},"properties":{"tessellate":-1,"extrude":0,"visibility":-1,"OBJECTID":118,"OID_":0,"ZONE":1,"DIVISION":6,"LAT":13.172369,"LONG_":80.300195,"name":"Raja Shanmugam Nagar"}},
{"type":"Feature","geometry":{"type":"Point","coordinates":[80.293318,13.176602]},"properties":{"tessellate":-1,"extrude":0,"visibility":-1,"OBJECTID":119,"OID_":0,"ZONE":1,"DIVISION":6,"LAT":13.176602,"LONG_":80.293318,"name":"Sathyamurthy Nagar"}},
{"type":"Feature","geometry":{"type":"Point","coordinates":[80.292813,13.171757]},"properties":{"tessellate":-1,"extrude":0,"visibility":-1,"OBJECTID":120,"OID_":0,"ZONE":1,"DIVISION":7,"LAT":13.171757,"LONG_":80.292813,"name":"Karkil Nagar"}},
{"type":"Feature","geometry":{"type":"Point","coordinates":[80.30171,13.166316]},"properties":{"tessellate":-1,"extrude":0,"visibility":-1,"OBJECTID":121,"OID_":0,"ZONE":1,"DIVISION":8,"LAT":13.166316,"LONG_":80.30171,"name":"Srinivasa Perumal Koil First Cross Street"}},
{"type":"Feature","geometry":{"type":"Point","coordinates":[80.307045,13.161937]},"properties":{"tessellate":-1,"extrude":0,"visibility":-1,"OBJECTID":122,"OID_":0,"ZONE":1,"DIVISION":9,"LAT":13.161937,"LONG_":80.307045,"name":"Thiruvottiyur Kuppam"}},
{"type":"Feature","geometry":{"type":"Point","coordinates":[80.307007,13.161616]},"properties":{"tessellate":-1,"extrude":0,"visibility":-1,"OBJECTID":123,"OID_":0,"ZONE":1,"DIVISION":9,"LAT":13.161616,"LONG_":80.307007,"name":"KiliJosiam Nagar"}},
{"type":"Feature","geometry":{"type":"Point","coordinates":[80.2945,13.151079]},"properties":{"tessellate":-1,"extrude":0,"visibility":-1,"OBJECTID":124,"OID_":0,"ZONE":1,"DIVISION":12,"LAT":13.151079,"LONG_":80.2945,"name":"Thilagar Nagar"}},
{"type":"Feature","geometry":{"type":"Point","coordinates":[80.295203,13.153956]},"properties":{"tessellate":-1,"extrude":0,"visibility":-1,"OBJECTID":125,"OID_":0,"ZONE":1,"DIVISION":12,"LAT":13.153956,"LONG_":80.295203,"name":"Balakrishna Colony"}},
{"type":"Feature","geometry":{"type":"Point","coordinates":[80.291179,13.144404]},"properties":{"tessellate":-1,"extrude":0,"visibility":-1,"OBJECTID":126,"OID_":0,"ZONE":1,"DIVISION":13,"LAT":13.144404,"LONG_":80.291179,"name":"Othai vadai Street"}},
{"type":"Feature","geometry":{"type":"Point","coordinates":[80.291385,13.145869]},"properties":{"tessellate":-1,"extrude":0,"visibility":-1,"OBJECTID":127,"OID_":0,"ZONE":1,"DIVISION":13,"LAT":13.145869,"LONG_":80.291385,"name":"Gandhi Nagar"}},
{"type":"Feature","geometry":{"type":"Point","coordinates":[80.2984001,13.1610854]},"properties":{"tessellate":-1,"extrude":0,"visibility":-1,"OBJECTID":128,"OID_":0,"ZONE":1,"DIVISION":10,"LAT":13.16108539,"LONG_":80.29840007,"name":"West Mada Str"}},
{"type":"Feature","geometry":{"type":"Point","coordinates":[80.277436,13.186982]},"properties":{"tessellate":-1,"extrude":0,"visibility":-1,"OBJECTID":129,"OID_":0,"ZONE":2,"DIVISION":16,"LAT":13.186982,"LONG_":80.277436,"name":"Sadayan Kuppam"}},
{"type":"Feature","geometry":{"type":"Point","coordinates":[80.277939,13.225626]},"properties":{"tessellate":-1,"extrude":0,"visibility":-1,"OBJECTID":130,"OID_":0,"ZONE":2,"DIVISION":15,"LAT":13.225626,"LONG_":80.277939,"name":"Old Napalyam Salai"}},
{"type":"Feature","geometry":{"type":"Point","coordinates":[80.274896,13.224493]},"properties":{"tessellate":-1,"extrude":0,"visibility":-1,"OBJECTID":131,"OID_":0,"ZONE":2,"DIVISION":15,"LAT":13.224493,"LONG_":80.274896,"name":"Lakshmi Nagar"}},
{"type":"Feature","geometry":{"type":"Point","coordinates":[80.274606,13.206018]},"properties":{"tessellate":-1,"extrude":0,"visibility":-1,"OBJECTID":132,"OID_":0,"ZONE":2,"DIVISION":15,"LAT":13.206018,"LONG_":80.274606,"name":"Manali New Town 58 th Block"}},
{"type":"Feature","geometry":{"type":"Point","coordinates":[80.255135,13.194465]},"properties":{"tessellate":-1,"extrude":0,"visibility":-1,"OBJECTID":133,"OID_":0,"ZONE":2,"DIVISION":16,"LAT":13.194465,"LONG_":80.255135,"name":"Kanniamman Pettai"}},
{"type":"Feature","geometry":{"type":"Point","coordinates":[80.228932,13.183276]},"properties":{"tessellate":-1,"extrude":0,"visibility":-1,"OBJECTID":134,"OID_":0,"ZONE":2,"DIVISION":17,"LAT":13.183276,"LONG_":80.228932,"name":"Chetty Medu"}},
{"type":"Feature","geometry":{"type":"Point","coordinates":[80.234987,13.184206]},"properties":{"tessellate":-1,"extrude":0,"visibility":-1,"OBJECTID":135,"OID_":0,"ZONE":2,"DIVISION":17,"LAT":13.184206,"LONG_":80.234987,"name":"Thiyagi Viswanatha Dass Nagar"}},
{"type":"Feature","geometry":{"type":"Point","coordinates":[80.211169,13.174733]},"properties":{"tessellate":-1,"extrude":0,"visibility":-1,"OBJECTID":136,"OID_":0,"ZONE":2,"DIVISION":17,"LAT":13.174733,"LONG_":80.211169,"name":"Thirupathi Devasthanam Nagar"}},
{"type":"Feature","geometry":{"type":"Point","coordinates":[80.23778,13.192631]},"properties":{"tessellate":-1,"extrude":0,"visibility":-1,"OBJECTID":137,"OID_":0,"ZONE":2,"DIVISION":17,"LAT":13.192631,"LONG_":80.23778,"name":"Periyar Nagar"}},
{"type":"Feature","geometry":{"type":"Point","coordinates":[80.257114,13.174364]},"properties":{"tessellate":-1,"extrude":0,"visibility":-1,"OBJECTID":138,"OID_":0,"ZONE":2,"DIVISION":18,"LAT":13.174364,"LONG_":80.257114,"name":"Neduncheliyan Street Extension"}},
{"type":"Feature","geometry":{"type":"Point","coordinates":[80.263606,13.166252]},"properties":{"tessellate":-1,"extrude":0,"visibility":-1,"OBJECTID":139,"OID_":0,"ZONE":2,"DIVISION":18,"LAT":13.166252,"LONG_":80.263606,"name":"Dr.Zhakirhussian Street"}},
{"type":"Feature","geometry":{"type":"Point","coordinates":[80.261174,13.172787]},"properties":{"tessellate":-1,"extrude":0,"visibility":-1,"OBJECTID":140,"OID_":0,"ZONE":2,"DIVISION":18,"LAT":13.172787,"LONG_":80.261174,"name":"Ekambaram Street"}},
{"type":"Feature","geometry":{"type":"Point","coordinates":[80.261973,13.172145]},"properties":{"tessellate":-1,"extrude":0,"visibility":-1,"OBJECTID":141,"OID_":0,"ZONE":2,"DIVISION":18,"LAT":13.172145,"LONG_":80.261973,"name":"Harikrishnapuram"}},
{"type":"Feature","geometry":{"type":"Point","coordinates":[80.259481,13.17065]},"properties":{"tessellate":-1,"extrude":0,"visibility":-1,"OBJECTID":142,"OID_":0,"ZONE":2,"DIVISION":18,"LAT":13.17065,"LONG_":80.259481,"name":"Bharathiyar Street"}},
{"type":"Feature","geometry":{"type":"Point","coordinates":[80.243,13.169531]},"properties":{"tessellate":-1,"extrude":0,"visibility":-1,"OBJECTID":143,"OID_":0,"ZONE":2,"DIVISION":19,"LAT":13.169531,"LONG_":80.243,"name":"Ponniamman Koil Street"}},
{"type":"Feature","geometry":{"type":"Point","coordinates":[80.253873,13.169027]},"properties":{"tessellate":-1,"extrude":0,"visibility":-1,"OBJECTID":144,"OID_":0,"ZONE":2,"DIVISION":20,"LAT":13.169027,"LONG_":80.253873,"name":"Balaraman Street"}},
{"type":"Feature","geometry":{"type":"Point","coordinates":[80.256084,13.171105]},"properties":{"tessellate":-1,"extrude":0,"visibility":-1,"OBJECTID":145,"OID_":0,"ZONE":2,"DIVISION":20,"LAT":13.171105,"LONG_":80.256084,"name":"Chinna Mattur Road"}},
{"type":"Feature","geometry":{"type":"Point","coordinates":[80.253534,13.169916]},"properties":{"tessellate":-1,"extrude":0,"visibility":-1,"OBJECTID":146,"OID_":0,"ZONE":2,"DIVISION":20,"LAT":13.169916,"LONG_":80.253534,"name":"J J Nagar"}},
{"type":"Feature","geometry":{"type":"Point","coordinates":[80.255127,13.172223]},"properties":{"tessellate":-1,"extrude":0,"visibility":-1,"OBJECTID":147,"OID_":0,"ZONE":2,"DIVISION":20,"LAT":13.172223,"LONG_":80.255127,"name":"M.G.R. Nagar"}},
{"type":"Feature","geometry":{"type":"Point","coordinates":[80.2627,13.164963]},"properties":{"tessellate":-1,"extrude":0,"visibility":-1,"OBJECTID":148,"OID_":0,"ZONE":2,"DIVISION":21,"LAT":13.164963,"LONG_":80.2627,"name":"Poongavanam Street"}},
{"type":"Feature","geometry":{"type":"Point","coordinates":[80.261937,13.163462]},"properties":{"tessellate":-1,"extrude":0,"visibility":-1,"OBJECTID":149,"OID_":0,"ZONE":2,"DIVISION":21,"LAT":13.163462,"LONG_":80.261937,"name":"Thiru vi Ka Street"}},
{"type":"Feature","geometry":{"type":"Point","coordinates":[80.26302,13.164114]},"properties":{"tessellate":-1,"extrude":0,"visibility":-1,"OBJECTID":150,"OID_":0,"ZONE":2,"DIVISION":21,"LAT":13.164114,"LONG_":80.26302,"name":"Jalagandamariamman Kovil Street"}},
{"type":"Feature","geometry":{"type":"Point","coordinates":[80.264379,13.163958]},"properties":{"tessellate":-1,"extrude":0,"visibility":-1,"OBJECTID":151,"OID_":0,"ZONE":2,"DIVISION":21,"LAT":13.163958,"LONG_":80.264379,"name":"Police Quarters"}},
{"type":"Feature","geometry":{"type":"Point","coordinates":[80.257551,13.163673]},"properties":{"tessellate":-1,"extrude":0,"visibility":-1,"OBJECTID":152,"OID_":0,"ZONE":2,"DIVISION":20,"LAT":13.163673,"LONG_":80.257551,"name":"Kamaraj Salai"}},
{"type":"Feature","geometry":{"type":"Point","coordinates":[80.201509,13.137541]},"properties":{"tessellate":-1,"extrude":0,"visibility":-1,"OBJECTID":153,"OID_":0,"ZONE":3,"DIVISION":24,"LAT":13.137541,"LONG_":80.201509,"name":"Iyyan Thiruvalluvar Salai"}},
{"type":"Feature","geometry":{"type":"Point","coordinates":[80.202262,13.149587]},"properties":{"tessellate":-1,"extrude":0,"visibility":-1,"OBJECTID":154,"OID_":0,"ZONE":3,"DIVISION":25,"LAT":13.149587,"LONG_":80.202262,"name":"Collector Nagar"}},
{"type":"Feature","geometry":{"type":"Point","coordinates":[80.197978,13.170176]},"properties":{"tessellate":-1,"extrude":0,"visibility":-1,"OBJECTID":155,"OID_":0,"ZONE":3,"DIVISION":22,"LAT":13.170176,"LONG_":80.197978,"name":"Kanappasamy Nagar"}},
{"type":"Feature","geometry":{"type":"Point","coordinates":[80.20536,13.16666]},"properties":{"tessellate":-1,"extrude":0,"visibility":-1,"OBJECTID":156,"OID_":0,"ZONE":3,"DIVISION":22,"LAT":13.16666,"LONG_":80.20536,"name":"Mahalakshmi Nagar"}},
{"type":"Feature","geometry":{"type":"Point","coordinates":[80.205867,13.161221]},"properties":{"tessellate":-1,"extrude":0,"visibility":-1,"OBJECTID":157,"OID_":0,"ZONE":3,"DIVISION":23,"LAT":13.161221,"LONG_":80.205867,"name":"Punitha Anthoniyar Street"}},
{"type":"Feature","geometry":{"type":"Point","coordinates":[80.208799,13.162033]},"properties":{"tessellate":-1,"extrude":0,"visibility":-1,"OBJECTID":158,"OID_":0,"ZONE":3,"DIVISION":23,"LAT":13.162033,"LONG_":80.208799,"name":"Othai vadai Street"}},
{"type":"Feature","geometry":{"type":"Point","coordinates":[80.185421,13.140838]},"properties":{"tessellate":-1,"extrude":0,"visibility":-1,"OBJECTID":159,"OID_":0,"ZONE":3,"DIVISION":24,"LAT":13.140838,"LONG_":80.185421,"name":"Surapet sivaprakasam Nagar"}},
{"type":"Feature","geometry":{"type":"Point","coordinates":[80.183796,13.141783]},"properties":{"tessellate":-1,"extrude":0,"visibility":-1,"OBJECTID":160,"OID_":0,"ZONE":3,"DIVISION":24,"LAT":13.141783,"LONG_":80.183796,"name":"Ambattur Redhills Road"}},
{"type":"Feature","geometry":{"type":"Point","coordinates":[80.21299,13.157101]},"properties":{"tessellate":-1,"extrude":0,"visibility":-1,"OBJECTID":161,"OID_":0,"ZONE":3,"DIVISION":25,"LAT":13.157101,"LONG_":80.21299,"name":"Aringar Anna Nagar"}},
{"type":"Feature","geometry":{"type":"Point","coordinates":[80.20911,13.152712]},"properties":{"tessellate":-1,"extrude":0,"visibility":-1,"OBJECTID":162,"OID_":0,"ZONE":3,"DIVISION":25,"LAT":13.152712,"LONG_":80.20911,"name":"GNT Road"}},
{"type":"Feature","geometry":{"type":"Point","coordinates":[80.219218,13.13255]},"properties":{"tessellate":-1,"extrude":0,"visibility":-1,"OBJECTID":163,"OID_":0,"ZONE":3,"DIVISION":26,"LAT":13.13255,"LONG_":80.219218,"name":"Devaki Nagar"}},
{"type":"Feature","geometry":{"type":"Point","coordinates":[80.216448,13.147233]},"properties":{"tessellate":-1,"extrude":0,"visibility":-1,"OBJECTID":164,"OID_":0,"ZONE":3,"DIVISION":26,"LAT":13.147233,"LONG_":80.216448,"name":"Truck Terminal, GNT Road"}},
{"type":"Feature","geometry":{"type":"Point","coordinates":[80.258552,13.154402]},"properties":{"tessellate":-1,"extrude":0,"visibility":-1,"OBJECTID":165,"OID_":0,"ZONE":3,"DIVISION":29,"LAT":13.154402,"LONG_":80.258552,"name":"Perumal Koil St, Balji Palayam"}},
{"type":"Feature","geometry":{"type":"Point","coordinates":[80.203206,13.134059]},"properties":{"tessellate":-1,"extrude":0,"visibility":-1,"OBJECTID":166,"OID_":0,"ZONE":3,"DIVISION":32,"LAT":13.134059,"LONG_":80.203206,"name":"Sarathi Nagar"}},
{"type":"Feature","geometry":{"type":"Point","coordinates":[80.226192,13.134242]},"properties":{"tessellate":-1,"extrude":0,"visibility":-1,"OBJECTID":167,"OID_":0,"ZONE":3,"DIVISION":33,"LAT":13.134242,"LONG_":80.226192,"name":"Prakah Nagar"}},
{"type":"Feature","geometry":{"type":"Point","coordinates":[80.221685,13.136554]},"properties":{"tessellate":-1,"extrude":0,"visibility":-1,"OBJECTID":168,"OID_":0,"ZONE":3,"DIVISION":33,"LAT":13.136554,"LONG_":80.221685,"name":"Munusamy Nagar"}},
{"type":"Feature","geometry":{"type":"Point","coordinates":[80.224405,13.137588]},"properties":{"tessellate":-1,"extrude":0,"visibility":-1,"OBJECTID":169,"OID_":0,"ZONE":3,"DIVISION":33,"LAT":13.137588,"LONG_":80.224405,"name":"Annapoorna Nagar"}},
{"type":"Feature","geometry":{"type":"Point","coordinates":[80.234699,13.129704]},"properties":{"tessellate":-1,"extrude":0,"visibility":-1,"OBJECTID":170,"OID_":0,"ZONE":3,"DIVISION":31,"LAT":13.129704,"LONG_":80.234699,"name":"Dr.Ambedkar Nagar"}},
{"type":"Feature","geometry":{"type":"Point","coordinates":[80.2565002,13.1460599]},"properties":{"tessellate":-1,"extrude":0,"visibility":-1,"OBJECTID":171,"OID_":0,"ZONE":4,"DIVISION":34,"LAT":13.1460599,"LONG_":80.2565002,"name":"Ishwariya Nagar"}},
{"type":"Feature","geometry":{"type":"Point","coordinates":[80.256114,13.1440121]},"properties":{"tessellate":-1,"extrude":0,"visibility":-1,"OBJECTID":172,"OID_":0,"ZONE":4,"DIVISION":34,"LAT":13.1440121,"LONG_":80.256114,"name":"Annai Avenue"}},
{"type":"Feature","geometry":{"type":"Point","coordinates":[80.2544832,13.1446599]},"properties":{"tessellate":-1,"extrude":0,"visibility":-1,"OBJECTID":173,"OID_":0,"ZONE":4,"DIVISION":34,"LAT":13.1446599,"LONG_":80.2544832,"name":"Durgai Avenue"}},
{"type":"Feature","geometry":{"type":"Point","coordinates":[80.259886,13.076293]},"properties":{"tessellate":-1,"extrude":0,"visibility":-1,"OBJECTID":1,"OID_":0,"ZONE":5,"DIVISION":61,"LAT":13.076293,"LONG_":80.259886,"name":"Gandhi - Irwin Road"}},
{"type":"Feature","geometry":{"type":"Point","coordinates":[80.270467,13.071143]},"properties":{"tessellate":-1,"extrude":0,"visibility":-1,"OBJECTID":2,"OID_":0,"ZONE":5,"DIVISION":61,"LAT":13.071143,"LONG_":80.270467,"name":"Singana Chetty St"}},
{"type":"Feature","geometry":{"type":"Point","coordinates":[80.270251,13.075223]},"properties":{"tessellate":-1,"extrude":0,"visibility":-1,"OBJECTID":3,"OID_":0,"ZONE":5,"DIVISION":62,"LAT":13.075223,"LONG_":80.270251,"name":"ArunaChala Road"}},
{"type":"Feature","geometry":{"type":"Point","coordinates":[80.266843,13.062479]},"properties":{"tessellate":-1,"extrude":0,"visibility":-1,"OBJECTID":4,"OID_":0,"ZONE":5,"DIVISION":63,"LAT":13.062479,"LONG_":80.266843,"name":"G.P Road"}},
{"type":"Feature","geometry":{"type":"Point","coordinates":[80.265007,13.067308]},"properties":{"tessellate":-1,"extrude":0,"visibility":-1,"OBJECTID":5,"OID_":0,"ZONE":5,"DIVISION":63,"LAT":13.067308,"LONG_":80.265007,"name":"South Coovam Road"}},
{"type":"Feature","geometry":{"type":"Point","coordinates":[80.263308,13.090253]},"properties":{"tessellate":-1,"extrude":0,"visibility":-1,"OBJECTID":6,"OID_":0,"ZONE":5,"DIVISION":54,"LAT":13.090253,"LONG_":80.263308,"name":"Avadhana papaiah road"}},
{"type":"Feature","geometry":{"type":"Point","coordinates":[80.217576,13.127013]},"properties":{"tessellate":-1,"extrude":0,"visibility":-1,"OBJECTID":7,"OID_":0,"ZONE":6,"DIVISION":64,"LAT":13.127013,"LONG_":80.217576,"name":"Vivek Nagar"}},
{"type":"Feature","geometry":{"type":"Point","coordinates":[80.2137351,13.1214753]},"properties":{"tessellate":-1,"extrude":0,"visibility":-1,"OBJECTID":8,"OID_":0,"ZONE":6,"DIVISION":64,"LAT":13.1214753,"LONG_":80.2137351,"name":"Poombugaar Nagar 11th Street"}},
{"type":"Feature","geometry":{"type":"Point","coordinates":[80.2153552,13.1213185]},"properties":{"tessellate":-1,"extrude":0,"visibility":-1,"OBJECTID":9,"OID_":0,"ZONE":6,"DIVISION":64,"LAT":13.1213185,"LONG_":80.2153552,"name":"Poombugaar Nagar 20th Street"}},
{"type":"Feature","geometry":{"type":"Point","coordinates":[80.215559,13.1208588]},"properties":{"tessellate":-1,"extrude":0,"visibility":-1,"OBJECTID":10,"OID_":0,"ZONE":6,"DIVISION":64,"LAT":13.1208588,"LONG_":80.215559,"name":"Poombugaar Nagar 21st Street"}},
{"type":"Feature","geometry":{"type":"Point","coordinates":[80.2172863,13.1209319]},"properties":{"tessellate":-1,"extrude":0,"visibility":-1,"OBJECTID":11,"OID_":0,"ZONE":6,"DIVISION":64,"LAT":13.1209319,"LONG_":80.2172863,"name":"Poombugaar Nagar 28th Street"}},
{"type":"Feature","geometry":{"type":"Point","coordinates":[80.2162457,13.1229172]},"properties":{"tessellate":-1,"extrude":0,"visibility":-1,"OBJECTID":12,"OID_":0,"ZONE":6,"DIVISION":64,"LAT":13.1229172,"LONG_":80.2162457,"name":"Kaveri Nagar"}},
{"type":"Feature","geometry":{"type":"Point","coordinates":[80.2077484,13.1235754]},"properties":{"tessellate":-1,"extrude":0,"visibility":-1,"OBJECTID":13,"OID_":0,"ZONE":6,"DIVISION":64,"LAT":13.1235754,"LONG_":80.2077484,"name":"Then Palani Nagar"}},
{"type":"Feature","geometry":{"type":"Point","coordinates":[80.2107096,13.1252211]},"properties":{"tessellate":-1,"extrude":0,"visibility":-1,"OBJECTID":14,"OID_":0,"ZONE":6,"DIVISION":64,"LAT":13.1252211,"LONG_":80.2107096,"name":"Siva Sakthi 4th Street"}},
{"type":"Feature","geometry":{"type":"Point","coordinates":[80.1995087,13.1227813]},"properties":{"tessellate":-1,"extrude":0,"visibility":-1,"OBJECTID":15,"OID_":0,"ZONE":6,"DIVISION":65,"LAT":13.1227813,"LONG_":80.1995087,"name":"Vivekanadan Nagar Main Road"}},
{"type":"Feature","geometry":{"type":"Point","coordinates":[80.2032959,13.1249651]},"properties":{"tessellate":-1,"extrude":0,"visibility":-1,"OBJECTID":16,"OID_":0,"ZONE":6,"DIVISION":65,"LAT":13.1249651,"LONG_":80.2032959,"name":"Thirumalai Nagar"}},
{"type":"Feature","geometry":{"type":"Point","coordinates":[80.202899,13.1271488]},"properties":{"tessellate":-1,"extrude":0,"visibility":-1,"OBJECTID":17,"OID_":0,"ZONE":6,"DIVISION":65,"LAT":13.1271488,"LONG_":80.202899,"name":"Bharath Rajeev Ganthi Nagar"}},
{"type":"Feature","geometry":{"type":"Point","coordinates":[80.2023518,13.1226664]},"properties":{"tessellate":-1,"extrude":0,"visibility":-1,"OBJECTID":18,"OID_":0,"ZONE":6,"DIVISION":65,"LAT":13.1226664,"LONG_":80.2023518,"name":"Senthi Nagar 14 Street"}},
{"type":"Feature","geometry":{"type":"Point","coordinates":[80.2024376,13.1222067]},"properties":{"tessellate":-1,"extrude":0,"visibility":-1,"OBJECTID":19,"OID_":0,"ZONE":6,"DIVISION":65,"LAT":13.1222067,"LONG_":80.2024376,"name":"Senthi Nagar 13th Street"}},
{"type":"Feature","geometry":{"type":"Point","coordinates":[80.2027595,13.1231575]},"properties":{"tessellate":-1,"extrude":0,"visibility":-1,"OBJECTID":20,"OID_":0,"ZONE":6,"DIVISION":65,"LAT":13.1231575,"LONG_":80.2027595,"name":"Senthi Nagar 15th Street"}},
{"type":"Feature","geometry":{"type":"Point","coordinates":[80.2019709,13.1250121]},"properties":{"tessellate":-1,"extrude":0,"visibility":-1,"OBJECTID":21,"OID_":0,"ZONE":6,"DIVISION":65,"LAT":13.1250121,"LONG_":80.2019709,"name":"Ussain Colony"}},
{"type":"Feature","geometry":{"type":"Point","coordinates":[80.2046531,13.1275616]},"properties":{"tessellate":-1,"extrude":0,"visibility":-1,"OBJECTID":22,"OID_":0,"ZONE":6,"DIVISION":65,"LAT":13.1275616,"LONG_":80.2046531,"name":"Venus Nagar"}},
{"type":"Feature","geometry":{"type":"Point","coordinates":[80.2057368,13.1236904]},"properties":{"tessellate":-1,"extrude":0,"visibility":-1,"OBJECTID":23,"OID_":0,"ZONE":6,"DIVISION":65,"LAT":13.1236904,"LONG_":80.2057368,"name":"Selvi Nagar 3rd Street"}},
{"type":"Feature","geometry":{"type":"Point","coordinates":[80.2087355,13.1164807]},"properties":{"tessellate":-1,"extrude":0,"visibility":-1,"OBJECTID":24,"OID_":0,"ZONE":6,"DIVISION":65,"LAT":13.1164807,"LONG_":80.2087355,"name":"Teacher Street"}},
{"type":"Feature","geometry":{"type":"Point","coordinates":[80.2112246,13.1128131]},"properties":{"tessellate":-1,"extrude":0,"visibility":-1,"OBJECTID":25,"OID_":0,"ZONE":6,"DIVISION":65,"LAT":13.1128131,"LONG_":80.2112246,"name":"Kavery Street"}},
{"type":"Feature","geometry":{"type":"Point","coordinates":[80.2287555,13.122447]},"properties":{"tessellate":-1,"extrude":0,"visibility":-1,"OBJECTID":26,"OID_":0,"ZONE":6,"DIVISION":66,"LAT":13.122447,"LONG_":80.2287555,"name":"Sivalingam Salai"}},
{"type":"Feature","geometry":{"type":"Point","coordinates":[80.2305794,13.1250173]},"properties":{"tessellate":-1,"extrude":0,"visibility":-1,"OBJECTID":27,"OID_":0,"ZONE":6,"DIVISION":66,"LAT":13.1250173,"LONG_":80.2305794,"name":"Ragavan Salai"}},
{"type":"Feature","geometry":{"type":"Point","coordinates":[80.2214813,13.1142342]},"properties":{"tessellate":-1,"extrude":0,"visibility":-1,"OBJECTID":28,"OID_":0,"ZONE":6,"DIVISION":66,"LAT":13.1142342,"LONG_":80.2214813,"name":"Periyar Nagar 18th Street"}},
{"type":"Feature","geometry":{"type":"Point","coordinates":[80.2249789,13.1175361]},"properties":{"tessellate":-1,"extrude":0,"visibility":-1,"OBJECTID":29,"OID_":0,"ZONE":6,"DIVISION":67,"LAT":13.1175361,"LONG_":80.2249789,"name":"SRP. Koil Street"}},
{"type":"Feature","geometry":{"type":"Point","coordinates":[80.2250004,13.1107233]},"properties":{"tessellate":-1,"extrude":0,"visibility":-1,"OBJECTID":30,"OID_":0,"ZONE":6,"DIVISION":67,"LAT":13.1107233,"LONG_":80.2250004,"name":"GKM Colony"}},
{"type":"Feature","geometry":{"type":"Point","coordinates":[80.2333689,13.1209006]},"properties":{"tessellate":-1,"extrude":0,"visibility":-1,"OBJECTID":31,"OID_":0,"ZONE":6,"DIVISION":68,"LAT":13.1209006,"LONG_":80.2333689,"name":"Pallavan Salai"}},
{"type":"Feature","geometry":{"type":"Point","coordinates":[80.2425098,13.1226142]},"properties":{"tessellate":-1,"extrude":0,"visibility":-1,"OBJECTID":32,"OID_":0,"ZONE":6,"DIVISION":69,"LAT":13.1226142,"LONG_":80.2425098,"name":"M.H.Road"}},
{"type":"Feature","geometry":{"type":"Point","coordinates":[80.2419949,13.1112039]},"properties":{"tessellate":-1,"extrude":0,"visibility":-1,"OBJECTID":33,"OID_":0,"ZONE":6,"DIVISION":69,"LAT":13.1112039,"LONG_":80.2419949,"name":"Bunder Garden Street"}},
{"type":"Feature","geometry":{"type":"Point","coordinates":[80.2401388,13.1132311]},"properties":{"tessellate":-1,"extrude":0,"visibility":-1,"OBJECTID":34,"OID_":0,"ZONE":6,"DIVISION":69,"LAT":13.1132311,"LONG_":80.2401388,"name":"Ragavan Street"}},
{"type":"Feature","geometry":{"type":"Point","coordinates":[80.2450097,13.1198139]},"properties":{"tessellate":-1,"extrude":0,"visibility":-1,"OBJECTID":35,"OID_":0,"ZONE":6,"DIVISION":69,"LAT":13.1198139,"LONG_":80.2450097,"name":"Jawahar Road"}},
{"type":"Feature","geometry":{"type":"Point","coordinates":[80.2427029,13.0992289]},"properties":{"tessellate":-1,"extrude":0,"visibility":-1,"OBJECTID":36,"OID_":0,"ZONE":6,"DIVISION":69,"LAT":13.0992289,"LONG_":80.2427029,"name":"Anderson Road"}},
{"type":"Feature","geometry":{"type":"Point","coordinates":[80.2413511,13.1190616]},"properties":{"tessellate":-1,"extrude":0,"visibility":-1,"OBJECTID":37,"OID_":0,"ZONE":6,"DIVISION":69,"LAT":13.1190616,"LONG_":80.2413511,"name":"Shanthi Nagar"}},
{"type":"Feature","geometry":{"type":"Point","coordinates":[80.2355844,13.099255]},"properties":{"tessellate":-1,"extrude":0,"visibility":-1,"OBJECTID":38,"OID_":0,"ZONE":6,"DIVISION":69,"LAT":13.099255,"LONG_":80.2355844,"name":"Aynavaram Ganambal Garden"}},
{"type":"Feature","geometry":{"type":"Point","coordinates":[80.2457714,13.0970345]},"properties":{"tessellate":-1,"extrude":0,"visibility":-1,"OBJECTID":39,"OID_":0,"ZONE":6,"DIVISION":71,"LAT":13.0970345,"LONG_":80.2457714,"name":"K.H.Road"}},
{"type":"Feature","geometry":{"type":"Point","coordinates":[80.245707,13.1047672]},"properties":{"tessellate":-1,"extrude":0,"visibility":-1,"OBJECTID":40,"OID_":0,"ZONE":6,"DIVISION":71,"LAT":13.1047672,"LONG_":80.245707,"name":"C.Y.S Road"}},
{"type":"Feature","geometry":{"type":"Point","coordinates":[80.245825,13.1032834]},"properties":{"tessellate":-1,"extrude":0,"visibility":-1,"OBJECTID":41,"OID_":0,"ZONE":6,"DIVISION":71,"LAT":13.1032834,"LONG_":80.245825,"name":"Jothi Nagar"}},
{"type":"Feature","geometry":{"type":"Point","coordinates":[80.2433681,13.1061047]},"properties":{"tessellate":-1,"extrude":0,"visibility":-1,"OBJECTID":42,"OID_":0,"ZONE":6,"DIVISION":71,"LAT":13.1061047,"LONG_":80.2433681,"name":"Raju Ganthi Nagar"}},
{"type":"Feature","geometry":{"type":"Point","coordinates":[80.2442372,13.1060525]},"properties":{"tessellate":-1,"extrude":0,"visibility":-1,"OBJECTID":43,"OID_":0,"ZONE":6,"DIVISION":71,"LAT":13.1060525,"LONG_":80.2442372,"name":"Semethamman Koil Street"}},
{"type":"Feature","geometry":{"type":"Point","coordinates":[80.2679576,13.0426179]},"properties":{"tessellate":-1,"extrude":0,"visibility":-1,"OBJECTID":509,"OID_":0,"ZONE":9,"DIVISION":121,"LAT":13.04261793,"LONG_":80.26795758,"name":"Thiru.Vi.ka Salai"}},
{"type":"Feature","geometry":{"type":"Point","coordinates":[80.2804316,13.0447328]},"properties":{"tessellate":-1,"extrude":0,"visibility":-1,"OBJECTID":510,"OID_":0,"ZONE":9,"DIVISION":121,"LAT":13.04473285,"LONG_":80.28043159,"name":"Marina Service Road"}},
{"type":"Feature","geometry":{"type":"Point","coordinates":[80.2480248,13.0291358]},"properties":{"tessellate":-1,"extrude":0,"visibility":-1,"OBJECTID":511,"OID_":0,"ZONE":9,"DIVISION":122,"LAT":13.0291358,"LONG_":80.24802475,"name":"Chamiers Road"}},
{"type":"Feature","geometry":{"type":"Point","coordinates":[80.2479126,13.0345626]},"properties":{"tessellate":-1,"extrude":0,"visibility":-1,"OBJECTID":512,"OID_":0,"ZONE":9,"DIVISION":122,"LAT":13.03456264,"LONG_":80.24791258,"name":"Seethamal colony 2nd main road"}},
{"type":"Feature","geometry":{"type":"Point","coordinates":[80.2502733,13.0353294]},"properties":{"tessellate":-1,"extrude":0,"visibility":-1,"OBJECTID":513,"OID_":0,"ZONE":9,"DIVISION":122,"LAT":13.03532936,"LONG_":80.2502733,"name":"K.B. Dasan Road"}},
{"type":"Feature","geometry":{"type":"Point","coordinates":[80.2449688,13.0274775]},"properties":{"tessellate":-1,"extrude":0,"visibility":-1,"OBJECTID":514,"OID_":0,"ZONE":9,"DIVISION":122,"LAT":13.02747749,"LONG_":80.24496885,"name":"Trunbulls Road"}},
{"type":"Feature","geometry":{"type":"Point","coordinates":[80.2446751,13.0347865]},"properties":{"tessellate":-1,"extrude":0,"visibility":-1,"OBJECTID":515,"OID_":0,"ZONE":9,"DIVISION":122,"LAT":13.03478654,"LONG_":80.24467513,"name":"Ranga street"}},
{"type":"Feature","geometry":{"type":"Point","coordinates":[80.2535429,13.0355487]},"properties":{"tessellate":-1,"extrude":0,"visibility":-1,"OBJECTID":516,"OID_":0,"ZONE":9,"DIVISION":123,"LAT":13.03554865,"LONG_":80.25354291,"name":"Seethamal colony 1st main road"}},
{"type":"Feature","geometry":{"type":"Point","coordinates":[80.2521198,13.0386808]},"properties":{"tessellate":-1,"extrude":0,"visibility":-1,"OBJECTID":517,"OID_":0,"ZONE":9,"DIVISION":123,"LAT":13.03868075,"LONG_":80.25211982,"name":"Eldams Road"}},
{"type":"Feature","geometry":{"type":"Point","coordinates":[80.2539425,13.0367126]},"properties":{"tessellate":-1,"extrude":0,"visibility":-1,"OBJECTID":518,"OID_":0,"ZONE":9,"DIVISION":123,"LAT":13.03671259,"LONG_":80.25394254,"name":"Seethammal Road"}},
{"type":"Feature","geometry":{"type":"Point","coordinates":[80.2692133,13.0360504]},"properties":{"tessellate":-1,"extrude":0,"visibility":-1,"OBJECTID":519,"OID_":0,"ZONE":9,"DIVISION":124,"LAT":13.03605042,"LONG_":80.26921326,"name":"Kutcheri Road"}},
{"type":"Feature","geometry":{"type":"Point","coordinates":[80.2512199,13.0220601]},"properties":{"tessellate":-1,"extrude":0,"visibility":-1,"OBJECTID":520,"OID_":0,"ZONE":9,"DIVISION":124,"LAT":13.02206013,"LONG_":80.25121994,"name":"Sundharam Salai"}},
{"type":"Feature","geometry":{"type":"Point","coordinates":[80.2639453,13.0305035]},"properties":{"tessellate":-1,"extrude":0,"visibility":-1,"OBJECTID":521,"OID_":0,"ZONE":9,"DIVISION":124,"LAT":13.03050347,"LONG_":80.26394529,"name":"V.C.Garden Street"}},
{"type":"Feature","geometry":{"type":"Point","coordinates":[80.2734441,13.0382953]},"properties":{"tessellate":-1,"extrude":0,"visibility":-1,"OBJECTID":522,"OID_":0,"ZONE":9,"DIVISION":124,"LAT":13.03829527,"LONG_":80.27344406,"name":"Thiyagaraya Puram"}},
{"type":"Feature","geometry":{"type":"Point","coordinates":[80.2677207,13.0329982]},"properties":{"tessellate":-1,"extrude":0,"visibility":-1,"OBJECTID":523,"OID_":0,"ZONE":9,"DIVISION":124,"LAT":13.03299819,"LONG_":80.26772069,"name":"R.K.Mutt Road"}},
{"type":"Feature","geometry":{"type":"Point","coordinates":[80.2755362,13.035805]},"properties":{"tessellate":-1,"extrude":0,"visibility":-1,"OBJECTID":524,"OID_":0,"ZONE":9,"DIVISION":125,"LAT":13.03580499,"LONG_":80.2755362,"name":"Papanasam Sivan Road"}},
{"type":"Feature","geometry":{"type":"Point","coordinates":[80.2767525,13.0299328]},"properties":{"tessellate":-1,"extrude":0,"visibility":-1,"OBJECTID":525,"OID_":0,"ZONE":9,"DIVISION":125,"LAT":13.02993283,"LONG_":80.27675248,"name":"Santhome High Road"}},
{"type":"Feature","geometry":{"type":"Point","coordinates":[80.2773422,13.0433252]},"properties":{"tessellate":-1,"extrude":0,"visibility":-1,"OBJECTID":526,"OID_":0,"ZONE":9,"DIVISION":125,"LAT":13.04332516,"LONG_":80.27734218,"name":"R.K.Salai"}},
{"type":"Feature","geometry":{"type":"Point","coordinates":[80.2730241,13.0344218]},"properties":{"tessellate":-1,"extrude":0,"visibility":-1,"OBJECTID":527,"OID_":0,"ZONE":9,"DIVISION":125,"LAT":13.03442178,"LONG_":80.27302413,"name":"M.G.R.Salai"}},
{"type":"Feature","geometry":{"type":"Point","coordinates":[80.2661683,13.0263818]},"properties":{"tessellate":-1,"extrude":0,"visibility":-1,"OBJECTID":528,"OID_":0,"ZONE":9,"DIVISION":125,"LAT":13.0263818,"LONG_":80.26616827,"name":"Mandeveli bus depot"}},
{"type":"Feature","geometry":{"type":"Point","coordinates":[80.2715835,13.0324181]},"properties":{"tessellate":-1,"extrude":0,"visibility":-1,"OBJECTID":529,"OID_":0,"ZONE":9,"DIVISION":125,"LAT":13.0324181,"LONG_":80.2715835,"name":"Sundershwarer Swamy Street"}},
{"type":"Feature","geometry":{"type":"Point","coordinates":[80.2760552,13.0253875]},"properties":{"tessellate":-1,"extrude":0,"visibility":-1,"OBJECTID":530,"OID_":0,"ZONE":9,"DIVISION":126,"LAT":13.02538752,"LONG_":80.27605521,"name":"Pattinam pakkam Road"}},
{"type":"Feature","geometry":{"type":"Point","coordinates":[80.2629411,13.0266686]},"properties":{"tessellate":-1,"extrude":0,"visibility":-1,"OBJECTID":531,"OID_":0,"ZONE":9,"DIVISION":126,"LAT":13.02666861,"LONG_":80.26294107,"name":"Venkata krishna Road"}},
{"type":"Feature","geometry":{"type":"Point","coordinates":[80.2637602,13.0282986]},"properties":{"tessellate":-1,"extrude":0,"visibility":-1,"OBJECTID":532,"OID_":0,"ZONE":9,"DIVISION":126,"LAT":13.0282986,"LONG_":80.26376018,"name":"Devanathen street"}},
{"type":"Feature","geometry":{"type":"Point","coordinates":[80.2751802,13.0259288]},"properties":{"tessellate":-1,"extrude":0,"visibility":-1,"OBJECTID":533,"OID_":0,"ZONE":9,"DIVISION":126,"LAT":13.02592884,"LONG_":80.27518017,"name":"Santhome High Road"}},
{"type":"Feature","geometry":{"type":"Point","coordinates":[80.1957994,13.0603446]},"properties":{"tessellate":-1,"extrude":0,"visibility":-1,"OBJECTID":534,"OID_":0,"ZONE":10,"DIVISION":127,"LAT":13.06034458,"LONG_":80.19579938,"name":"KALIAMMAN KOIL STREET"}},
{"type":"Feature","geometry":{"type":"Point","coordinates":[80.2064161,13.070086]},"properties":{"tessellate":-1,"extrude":0,"visibility":-1,"OBJECTID":535,"OID_":0,"ZONE":10,"DIVISION":127,"LAT":13.07008603,"LONG_":80.20641609,"name":"JAI NAGAR"}},
{"type":"Feature","geometry":{"type":"Point","coordinates":[80.1946627,13.0597441]},"properties":{"tessellate":-1,"extrude":0,"visibility":-1,"OBJECTID":536,"OID_":0,"ZONE":10,"DIVISION":127,"LAT":13.05974407,"LONG_":80.19466273,"name":"RAGAVENDRA COLONY"}},
{"type":"Feature","geometry":{"type":"Point","coordinates":[80.196365,13.0711264]},"properties":{"tessellate":-1,"extrude":0,"visibility":-1,"OBJECTID":537,"OID_":0,"ZONE":10,"DIVISION":127,"LAT":13.07112643,"LONG_":80.19636501,"name":"SRINIVASA NAGAR"}},
{"type":"Feature","geometry":{"type":"Point","coordinates":[80.1868668,13.048318]},"properties":{"tessellate":-1,"extrude":0,"visibility":-1,"OBJECTID":538,"OID_":0,"ZONE":10,"DIVISION":127,"LAT":13.048318,"LONG_":80.1868668,"name":"NEW COLONY"}},
{"type":"Feature","geometry":{"type":"Point","coordinates":[80.1973073,13.0636821]},"properties":{"tessellate":-1,"extrude":0,"visibility":-1,"OBJECTID":539,"OID_":0,"ZONE":10,"DIVISION":127,"LAT":13.06368208,"LONG_":80.19730727,"name":"SRI IYAPPA NAGAR"}},
{"type":"Feature","geometry":{"type":"Point","coordinates":[80.2033719,13.062329]},"properties":{"tessellate":-1,"extrude":0,"visibility":-1,"OBJECTID":540,"OID_":0,"ZONE":10,"DIVISION":127,"LAT":13.062329,"LONG_":80.2033719,"name":"KULASEKARAPURAM"}},
{"type":"Feature","geometry":{"type":"Point","coordinates":[80.2040962,13.0537343]},"properties":{"tessellate":-1,"extrude":0,"visibility":-1,"OBJECTID":541,"OID_":0,"ZONE":10,"DIVISION":129,"LAT":13.05373429,"LONG_":80.20409624,"name":"ARUNACHALAM ROAD"}},
{"type":"Feature","geometry":{"type":"Point","coordinates":[80.199106,13.0492]},"properties":{"tessellate":-1,"extrude":0,"visibility":-1,"OBJECTID":542,"OID_":0,"ZONE":10,"DIVISION":129,"LAT":13.0492,"LONG_":80.199106,"name":"ABUSALI SALAI"}},
{"type":"Feature","geometry":{"type":"Point","coordinates":[80.1983397,13.0566272]},"properties":{"tessellate":-1,"extrude":0,"visibility":-1,"OBJECTID":543,"OID_":0,"ZONE":10,"DIVISION":129,"LAT":13.05662722,"LONG_":80.19833973,"name":"BALAJI NAGAR"}},
{"type":"Feature","geometry":{"type":"Point","coordinates":[80.2080617,13.0594187]},"properties":{"tessellate":-1,"extrude":0,"visibility":-1,"OBJECTID":544,"OID_":0,"ZONE":10,"DIVISION":129,"LAT":13.05941874,"LONG_":80.20806168,"name":"THIRUVALLUVAR STREET"}},
{"type":"Feature","geometry":{"type":"Point","coordinates":[80.2010916,13.0568472]},"properties":{"tessellate":-1,"extrude":0,"visibility":-1,"OBJECTID":545,"OID_":0,"ZONE":10,"DIVISION":129,"LAT":13.05684719,"LONG_":80.20109158,"name":"Mathiazhaghan Nagar"}},
{"type":"Feature","geometry":{"type":"Point","coordinates":[80.1900576,13.0351167]},"properties":{"tessellate":-1,"extrude":0,"visibility":-1,"OBJECTID":546,"OID_":0,"ZONE":10,"DIVISION":128,"LAT":13.03511669,"LONG_":80.19005763,"name":"PERIYAR NAGAR"}},
{"type":"Feature","geometry":{"type":"Point","coordinates":[80.1923524,13.0534115]},"properties":{"tessellate":-1,"extrude":0,"visibility":-1,"OBJECTID":547,"OID_":0,"ZONE":10,"DIVISION":128,"LAT":13.05341146,"LONG_":80.19235242,"name":"KALIAMMAN KOIL STREET"}},
{"type":"Feature","geometry":{"type":"Point","coordinates":[80.1909904,13.0542115]},"properties":{"tessellate":-1,"extrude":0,"visibility":-1,"OBJECTID":548,"OID_":0,"ZONE":10,"DIVISION":128,"LAT":13.05421152,"LONG_":80.19099039,"name":"ELANGO NAGAR"}},
{"type":"Feature","geometry":{"type":"Point","coordinates":[80.194832,13.0482825]},"properties":{"tessellate":-1,"extrude":0,"visibility":-1,"OBJECTID":549,"OID_":0,"ZONE":10,"DIVISION":128,"LAT":13.0482825,"LONG_":80.19483198,"name":"Saratha Nagar"}},
{"type":"Feature","geometry":{"type":"Point","coordinates":[80.1949225,13.0548291]},"properties":{"tessellate":-1,"extrude":0,"visibility":-1,"OBJECTID":550,"OID_":0,"ZONE":10,"DIVISION":128,"LAT":13.05482914,"LONG_":80.19492252,"name":"Tarachand Nagar"}},
{"type":"Feature","geometry":{"type":"Point","coordinates":[80.1918657,13.0536352]},"properties":{"tessellate":-1,"extrude":0,"visibility":-1,"OBJECTID":551,"OID_":0,"ZONE":10,"DIVISION":128,"LAT":13.05363518,"LONG_":80.19186566,"name":"CRR PURAM"}},
{"type":"Feature","geometry":{"type":"Point","coordinates":[80.26577,13.1151746]},"properties":{"tessellate":-1,"extrude":0,"visibility":-1,"OBJECTID":216,"OID_":0,"ZONE":4,"DIVISION":46,"LAT":13.1151746,"LONG_":80.26577,"name":"Sathya Moorthy Nagar Main Road"}},
{"type":"Feature","geometry":{"type":"Point","coordinates":[80.2789235,13.1124265]},"properties":{"tessellate":-1,"extrude":0,"visibility":-1,"OBJECTID":217,"OID_":0,"ZONE":4,"DIVISION":48,"LAT":13.1124265,"LONG_":80.2789235,"name":"DBK Street"}},
{"type":"Feature","geometry":{"type":"Point","coordinates":[80.2794009,13.1130064]},"properties":{"tessellate":-1,"extrude":0,"visibility":-1,"OBJECTID":218,"OID_":0,"ZONE":4,"DIVISION":48,"LAT":13.1130064,"LONG_":80.2794009,"name":"Partha Sarathy St"}},
{"type":"Feature","geometry":{"type":"Point","coordinates":[80.2597702,13.1134923]},"properties":{"tessellate":-1,"extrude":0,"visibility":-1,"OBJECTID":219,"OID_":0,"ZONE":4,"DIVISION":45,"LAT":13.11349232,"LONG_":80.25977019,"name":"Renuka Devi Amman Street"}},
{"type":"Feature","geometry":{"type":"Point","coordinates":[80.2672572,13.1183643]},"properties":{"tessellate":-1,"extrude":0,"visibility":-1,"OBJECTID":220,"OID_":0,"ZONE":4,"DIVISION":46,"LAT":13.11836427,"LONG_":80.26725716,"name":"Sathya Moorthy Nagar 24th Block"}},
{"type":"Feature","geometry":{"type":"Point","coordinates":[80.280189,13.109505]},"properties":{"tessellate":-1,"extrude":0,"visibility":-1,"OBJECTID":221,"OID_":0,"ZONE":5,"DIVISION":53,"LAT":13.109505,"LONG_":80.280189,"name":"T.H.Road (Dr.Vijayaragavalu road)"}},
{"type":"Feature","geometry":{"type":"Point","coordinates":[80.278287,13.1049]},"properties":{"tessellate":-1,"extrude":0,"visibility":-1,"OBJECTID":222,"OID_":0,"ZONE":5,"DIVISION":53,"LAT":13.1049,"LONG_":80.278287,"name":"North wall road"}},
{"type":"Feature","geometry":{"type":"Point","coordinates":[80.272756,13.108109]},"properties":{"tessellate":-1,"extrude":0,"visibility":-1,"OBJECTID":223,"OID_":0,"ZONE":5,"DIVISION":53,"LAT":13.108109,"LONG_":80.272756,"name":"C.B.Road"}},
{"type":"Feature","geometry":{"type":"Point","coordinates":[80.278098,13.096947]},"properties":{"tessellate":-1,"extrude":0,"visibility":-1,"OBJECTID":224,"OID_":0,"ZONE":5,"DIVISION":54,"LAT":13.096947,"LONG_":80.278098,"name":"Thirupali St"}},
{"type":"Feature","geometry":{"type":"Point","coordinates":[80.278402,13.099034]},"properties":{"tessellate":-1,"extrude":0,"visibility":-1,"OBJECTID":225,"OID_":0,"ZONE":5,"DIVISION":54,"LAT":13.099034,"LONG_":80.278402,"name":"Amman Koil Street"}},
{"type":"Feature","geometry":{"type":"Point","coordinates":[80.275282,13.097865]},"properties":{"tessellate":-1,"extrude":0,"visibility":-1,"OBJECTID":226,"OID_":0,"ZONE":5,"DIVISION":54,"LAT":13.097865,"LONG_":80.275282,"name":"Waltax road"}},
{"type":"Feature","geometry":{"type":"Point","coordinates":[80.27627,13.100457]},"properties":{"tessellate":-1,"extrude":0,"visibility":-1,"OBJECTID":227,"OID_":0,"ZONE":5,"DIVISION":54,"LAT":13.100457,"LONG_":80.27627,"name":"chakarai chety st."}},
{"type":"Feature","geometry":{"type":"Point","coordinates":[80.262524,13.076115]},"properties":{"tessellate":-1,"extrude":0,"visibility":-1,"OBJECTID":228,"OID_":0,"ZONE":5,"DIVISION":61,"LAT":13.076115,"LONG_":80.262524,"name":"Kennte Lane"}},
{"type":"Feature","geometry":{"type":"Point","coordinates":[80.255893,13.078419]},"properties":{"tessellate":-1,"extrude":0,"visibility":-1,"OBJECTID":229,"OID_":0,"ZONE":5,"DIVISION":61,"LAT":13.078419,"LONG_":80.255893,"name":"Santhosh Nagar"}},
{"type":"Feature","geometry":{"type":"Point","coordinates":[80.257305,13.066778]},"properties":{"tessellate":-1,"extrude":0,"visibility":-1,"OBJECTID":230,"OID_":0,"ZONE":5,"DIVISION":61,"LAT":13.066778,"LONG_":80.257305,"name":"Ethiraj lane"}},
{"type":"Feature","geometry":{"type":"Point","coordinates":[80.2089701,13.03298]},"properties":{"tessellate":-1,"extrude":0,"visibility":-1,"OBJECTID":231,"OID_":0,"ZONE":10,"DIVISION":138,"LAT":13.03298001,"LONG_":80.20897012,"name":"Ambedkar Colony"}},
{"type":"Feature","geometry":{"type":"Point","coordinates":[80.2050539,13.032686]},"properties":{"tessellate":-1,"extrude":0,"visibility":-1,"OBJECTID":232,"OID_":0,"ZONE":10,"DIVISION":138,"LAT":13.03268601,"LONG_":80.20505386,"name":"Bharathidasan Colony main raod"}},
{"type":"Feature","geometry":{"type":"Point","coordinates":[80.2226798,13.0313341]},"properties":{"tessellate":-1,"extrude":0,"visibility":-1,"OBJECTID":233,"OID_":0,"ZONE":10,"DIVISION":140,"LAT":13.03133411,"LONG_":80.22267975,"name":"GOVINDAN ROAD"}},
{"type":"Feature","geometry":{"type":"Point","coordinates":[80.2255753,13.0319803]},"properties":{"tessellate":-1,"extrude":0,"visibility":-1,"OBJECTID":234,"OID_":0,"ZONE":10,"DIVISION":140,"LAT":13.03198027,"LONG_":80.22557525,"name":"K.R.KOIL STREET"}},
{"type":"Feature","geometry":{"type":"Point","coordinates":[80.2233112,13.0326387]},"properties":{"tessellate":-1,"extrude":0,"visibility":-1,"OBJECTID":235,"OID_":0,"ZONE":10,"DIVISION":140,"LAT":13.03263874,"LONG_":80.22331122,"name":"Jothiramalingam Nagar"}},
{"type":"Feature","geometry":{"type":"Point","coordinates":[80.224764,13.0335718]},"properties":{"tessellate":-1,"extrude":0,"visibility":-1,"OBJECTID":236,"OID_":0,"ZONE":10,"DIVISION":140,"LAT":13.03357182,"LONG_":80.22476397,"name":"Ellaiamman Koil Street"}},
{"type":"Feature","geometry":{"type":"Point","coordinates":[80.2320253,13.0309807]},"properties":{"tessellate":-1,"extrude":0,"visibility":-1,"OBJECTID":237,"OID_":0,"ZONE":10,"DIVISION":141,"LAT":13.03098071,"LONG_":80.23202533,"name":"SOUTH WEST BOAG ROAD"}},
{"type":"Feature","geometry":{"type":"Point","coordinates":[80.2244063,13.020732]},"properties":{"tessellate":-1,"extrude":0,"visibility":-1,"OBJECTID":238,"OID_":0,"ZONE":10,"DIVISION":142,"LAT":13.02073201,"LONG_":80.22440627,"name":"JEENIS ROAD"}},
{"type":"Feature","geometry":{"type":"Point","coordinates":[80.2190414,13.0233448]},"properties":{"tessellate":-1,"extrude":0,"visibility":-1,"OBJECTID":239,"OID_":0,"ZONE":10,"DIVISION":142,"LAT":13.02334477,"LONG_":80.2190414,"name":"Diwan Bashyam Street"}},
{"type":"Feature","geometry":{"type":"Point","coordinates":[80.2182507,13.0274443]},"properties":{"tessellate":-1,"extrude":0,"visibility":-1,"OBJECTID":240,"OID_":0,"ZONE":10,"DIVISION":142,"LAT":13.02744429,"LONG_":80.21825071,"name":"THIRUVALLUVAR STREET"}},
{"type":"Feature","geometry":{"type":"Point","coordinates":[80.2197417,13.0370228]},"properties":{"tessellate":-1,"extrude":0,"visibility":-1,"OBJECTID":241,"OID_":0,"ZONE":10,"DIVISION":135,"LAT":13.03702281,"LONG_":80.21974167,"name":"POSTAL COLONY 1ST STREET"}},
{"type":"Feature","geometry":{"type":"Point","coordinates":[80.2196757,13.0359349]},"properties":{"tessellate":-1,"extrude":0,"visibility":-1,"OBJECTID":242,"OID_":0,"ZONE":10,"DIVISION":135,"LAT":13.03593486,"LONG_":80.21967573,"name":"POSTAL COLONY 3RD STREET"}},
{"type":"Feature","geometry":{"type":"Point","coordinates":[80.2362259,13.0428061]},"properties":{"tessellate":-1,"extrude":0,"visibility":-1,"OBJECTID":243,"OID_":0,"ZONE":10,"DIVISION":136,"LAT":13.04280607,"LONG_":80.23622587,"name":"G.N.Chetty road"}},
{"type":"Feature","geometry":{"type":"Point","coordinates":[80.2135475,13.0568208]},"properties":{"tessellate":-1,"extrude":0,"visibility":-1,"OBJECTID":244,"OID_":0,"ZONE":10,"DIVISION":130,"LAT":13.05682077,"LONG_":80.21354754,"name":"ALAGIRI NAGAR 4TH street"}},
{"type":"Feature","geometry":{"type":"Point","coordinates":[80.2137022,13.0562556]},"properties":{"tessellate":-1,"extrude":0,"visibility":-1,"OBJECTID":245,"OID_":0,"ZONE":10,"DIVISION":130,"LAT":13.05625564,"LONG_":80.2137022,"name":"ALAGIRI NAGAR 3RD street"}},
{"type":"Feature","geometry":{"type":"Point","coordinates":[80.2137082,13.0570736]},"properties":{"tessellate":-1,"extrude":0,"visibility":-1,"OBJECTID":246,"OID_":0,"ZONE":10,"DIVISION":130,"LAT":13.05707358,"LONG_":80.21370815,"name":"ALAGIRI NAGAR  5TH street"}},
{"type":"Feature","geometry":{"type":"Point","coordinates":[80.2028893,13.0593554]},"properties":{"tessellate":-1,"extrude":0,"visibility":-1,"OBJECTID":247,"OID_":0,"ZONE":10,"DIVISION":129,"LAT":13.05935536,"LONG_":80.20288927,"name":"Devaraj Nagar"}},
{"type":"Feature","geometry":{"type":"Point","coordinates":[80.2018483,13.0574984]},"properties":{"tessellate":-1,"extrude":0,"visibility":-1,"OBJECTID":248,"OID_":0,"ZONE":10,"DIVISION":129,"LAT":13.05749837,"LONG_":80.20184833,"name":"K.K.ROAD"}},
{"type":"Feature","geometry":{"type":"Point","coordinates":[80.2136992,13.0565709]},"properties":{"tessellate":-1,"extrude":0,"visibility":-1,"OBJECTID":249,"OID_":0,"ZONE":10,"DIVISION":130,"LAT":13.05657092,"LONG_":80.21369923,"name":"ALAGIRI NAGAR 2ND street"}},
{"type":"Feature","geometry":{"type":"Point","coordinates":[80.1645885,13.0771905]},"properties":{"tessellate":-1,"extrude":0,"visibility":-1,"OBJECTID":250,"OID_":0,"ZONE":11,"DIVISION":143,"LAT":13.0771905,"LONG_":80.16458855,"name":"VGN NAGAR"}},
{"type":"Feature","geometry":{"type":"Point","coordinates":[80.1673082,13.0733612]},"properties":{"tessellate":-1,"extrude":0,"visibility":-1,"OBJECTID":251,"OID_":0,"ZONE":11,"DIVISION":143,"LAT":13.07336124,"LONG_":80.16730821,"name":"Sriram Nagar Main Road"}},
{"type":"Feature","geometry":{"type":"Point","coordinates":[80.1772957,13.0674891]},"properties":{"tessellate":-1,"extrude":0,"visibility":-1,"OBJECTID":252,"OID_":0,"ZONE":11,"DIVISION":144,"LAT":13.06748908,"LONG_":80.1772957,"name":"Poonamallee High Road"}},
{"type":"Feature","geometry":{"type":"Point","coordinates":[80.1754623,13.0632848]},"properties":{"tessellate":-1,"extrude":0,"visibility":-1,"OBJECTID":253,"OID_":0,"ZONE":11,"DIVISION":144,"LAT":13.06328477,"LONG_":80.17546227,"name":"MMDA Colony 4th Block"}},
{"type":"Feature","geometry":{"type":"Point","coordinates":[80.175273,13.0639687]},"properties":{"tessellate":-1,"extrude":0,"visibility":-1,"OBJECTID":254,"OID_":0,"ZONE":11,"DIVISION":144,"LAT":13.06396871,"LONG_":80.17527297,"name":"MMDA Colony 5th Block"}},
{"type":"Feature","geometry":{"type":"Point","coordinates":[80.1840192,13.0696016]},"properties":{"tessellate":-1,"extrude":0,"visibility":-1,"OBJECTID":255,"OID_":0,"ZONE":11,"DIVISION":145,"LAT":13.0696016,"LONG_":80.1840192,"name":"Pallavan nagar"}},
{"type":"Feature","geometry":{"type":"Point","coordinates":[80.1864332,13.0631635]},"properties":{"tessellate":-1,"extrude":0,"visibility":-1,"OBJECTID":256,"OID_":0,"ZONE":11,"DIVISION":145,"LAT":13.0631635,"LONG_":80.18643315,"name":"Azhagammal Nagar 8th Street"}},
{"type":"Feature","geometry":{"type":"Point","coordinates":[80.180473,13.0616002]},"properties":{"tessellate":-1,"extrude":0,"visibility":-1,"OBJECTID":257,"OID_":0,"ZONE":11,"DIVISION":145,"LAT":13.06160018,"LONG_":80.18047303,"name":"Azhagammal Nagar 7th Street"}},
{"type":"Feature","geometry":{"type":"Point","coordinates":[80.1672423,13.0764466]},"properties":{"tessellate":-1,"extrude":0,"visibility":-1,"OBJECTID":258,"OID_":0,"ZONE":11,"DIVISION":143,"LAT":13.07644657,"LONG_":80.16724229,"name":"Vembuliamman Koil Street"}},
{"type":"Feature","geometry":{"type":"Point","coordinates":[80.1870188,13.0595165]},"properties":{"tessellate":-1,"extrude":0,"visibility":-1,"OBJECTID":259,"OID_":0,"ZONE":11,"DIVISION":145,"LAT":13.05951653,"LONG_":80.18701884,"name":"Muniappa Nagar 2nd Street"}},
{"type":"Feature","geometry":{"type":"Point","coordinates":[80.1837167,13.0621431]},"properties":{"tessellate":-1,"extrude":0,"visibility":-1,"OBJECTID":260,"OID_":0,"ZONE":11,"DIVISION":145,"LAT":13.06214314,"LONG_":80.1837167,"name":"Krishna Nagar Main Road"}},
{"type":"Feature","geometry":{"type":"Point","coordinates":[80.1826575,13.0616308]},"properties":{"tessellate":-1,"extrude":0,"visibility":-1,"OBJECTID":261,"OID_":0,"ZONE":11,"DIVISION":145,"LAT":13.06163083,"LONG_":80.18265748,"name":"NT Patel Road MGR Salai"}},
{"type":"Feature","geometry":{"type":"Point","coordinates":[80.1623993,13.0578952]},"properties":{"tessellate":-1,"extrude":0,"visibility":-1,"OBJECTID":262,"OID_":0,"ZONE":11,"DIVISION":146,"LAT":13.05789524,"LONG_":80.16239929,"name":"MGR Street"}},
{"type":"Feature","geometry":{"type":"Point","coordinates":[80.1634641,13.0457029]},"properties":{"tessellate":-1,"extrude":0,"visibility":-1,"OBJECTID":263,"OID_":0,"ZONE":11,"DIVISION":146,"LAT":13.04570294,"LONG_":80.1634641,"name":"Bharathidasan Nagar"}},
{"type":"Feature","geometry":{"type":"Point","coordinates":[80.1660272,13.0488229]},"properties":{"tessellate":-1,"extrude":0,"visibility":-1,"OBJECTID":264,"OID_":0,"ZONE":11,"DIVISION":147,"LAT":13.04882291,"LONG_":80.16602724,"name":"Alapakkam Main Road Jn of HP Petrol Bunk"}},
{"type":"Feature","geometry":{"type":"Point","coordinates":[80.1664351,13.0532182]},"properties":{"tessellate":-1,"extrude":0,"visibility":-1,"OBJECTID":265,"OID_":0,"ZONE":11,"DIVISION":147,"LAT":13.05321818,"LONG_":80.16643507,"name":"Alapakkam Main Road Jn of Meenakshmi School"}},
{"type":"Feature","geometry":{"type":"Point","coordinates":[80.1636382,13.0382545]},"properties":{"tessellate":-1,"extrude":0,"visibility":-1,"OBJECTID":266,"OID_":0,"ZONE":11,"DIVISION":147,"LAT":13.03825448,"LONG_":80.16363823,"name":"Arcot Road Near Vasanth & Co"}},
{"type":"Feature","geometry":{"type":"Point","coordinates":[80.1690088,13.0467543]},"properties":{"tessellate":-1,"extrude":0,"visibility":-1,"OBJECTID":267,"OID_":0,"ZONE":11,"DIVISION":147,"LAT":13.04675433,"LONG_":80.16900875,"name":"Astalakshmi Nagar 3rd Main Road"}},
{"type":"Feature","geometry":{"type":"Point","coordinates":[80.170005,13.046611]},"properties":{"tessellate":-1,"extrude":0,"visibility":-1,"OBJECTID":268,"OID_":0,"ZONE":11,"DIVISION":147,"LAT":13.046611,"LONG_":80.17000504,"name":"Astalakshmi Nagar 6th Street"}},
{"type":"Feature","geometry":{"type":"Point","coordinates":[80.1744181,13.0625337]},"properties":{"tessellate":-1,"extrude":0,"visibility":-1,"OBJECTID":269,"OID_":0,"ZONE":11,"DIVISION":147,"LAT":13.06253369,"LONG_":80.17441812,"name":"Chokanathan 1st Cross Street"}},
{"type":"Feature","geometry":{"type":"Point","coordinates":[80.1691168,13.0505813]},"properties":{"tessellate":-1,"extrude":0,"visibility":-1,"OBJECTID":270,"OID_":0,"ZONE":11,"DIVISION":147,"LAT":13.05058128,"LONG_":80.16911676,"name":"Krishna Nagar 3rd Main Road"}},
{"type":"Feature","geometry":{"type":"Point","coordinates":[80.1665882,13.0468611]},"properties":{"tessellate":-1,"extrude":0,"visibility":-1,"OBJECTID":271,"OID_":0,"ZONE":11,"DIVISION":147,"LAT":13.0468611,"LONG_":80.16658825,"name":"Astalakshmi Nagar 24th Street"}},
{"type":"Feature","geometry":{"type":"Point","coordinates":[80.1857496,13.0543367]},"properties":{"tessellate":-1,"extrude":0,"visibility":-1,"OBJECTID":272,"OID_":0,"ZONE":11,"DIVISION":148,"LAT":13.05433675,"LONG_":80.18574955,"name":"Periyar Nagar"}},
{"type":"Feature","geometry":{"type":"Point","coordinates":[80.1795001,13.0619332]},"properties":{"tessellate":-1,"extrude":0,"visibility":-1,"OBJECTID":273,"OID_":0,"ZONE":11,"DIVISION":148,"LAT":13.06193315,"LONG_":80.17950008,"name":"CDN Nagar"}},
{"type":"Feature","geometry":{"type":"Point","coordinates":[80.1822734,13.053501]},"properties":{"tessellate":-1,"extrude":0,"visibility":-1,"OBJECTID":274,"OID_":0,"ZONE":11,"DIVISION":148,"LAT":13.05350103,"LONG_":80.18227342,"name":"Balaji Nagar"}},
{"type":"Feature","geometry":{"type":"Point","coordinates":[80.1794922,13.0534075]},"properties":{"tessellate":-1,"extrude":0,"visibility":-1,"OBJECTID":275,"OID_":0,"ZONE":11,"DIVISION":148,"LAT":13.05340753,"LONG_":80.17949217,"name":"Anbu nagar"}},
{"type":"Feature","geometry":{"type":"Point","coordinates":[80.1836719,13.0528222]},"properties":{"tessellate":-1,"extrude":0,"visibility":-1,"OBJECTID":276,"OID_":0,"ZONE":11,"DIVISION":148,"LAT":13.05282223,"LONG_":80.18367186,"name":"Saraswathi Nagar"}},
{"type":"Feature","geometry":{"type":"Point","coordinates":[80.1775601,13.0435385]},"properties":{"tessellate":-1,"extrude":0,"visibility":-1,"OBJECTID":277,"OID_":0,"ZONE":11,"DIVISION":149,"LAT":13.04353849,"LONG_":80.17756012,"name":"Devikarumariyamman Nagar"}},
{"type":"Feature","geometry":{"type":"Point","coordinates":[80.1830544,13.0441874]},"properties":{"tessellate":-1,"extrude":0,"visibility":-1,"OBJECTID":278,"OID_":0,"ZONE":11,"DIVISION":149,"LAT":13.04418743,"LONG_":80.18305442,"name":"Palaniyappa Nagar Main Road"}},
{"type":"Feature","geometry":{"type":"Point","coordinates":[80.1810558,13.043277]},"properties":{"tessellate":-1,"extrude":0,"visibility":-1,"OBJECTID":279,"OID_":0,"ZONE":11,"DIVISION":149,"LAT":13.04327703,"LONG_":80.18105584,"name":"Fathima Nagar Park"}},
{"type":"Feature","geometry":{"type":"Point","coordinates":[80.1831114,13.0514075]},"properties":{"tessellate":-1,"extrude":0,"visibility":-1,"OBJECTID":280,"OID_":0,"ZONE":11,"DIVISION":149,"LAT":13.05140746,"LONG_":80.18311144,"name":"Arcot Road BVR Nagar"}},
{"type":"Feature","geometry":{"type":"Point","coordinates":[80.1733018,13.0447205]},"properties":{"tessellate":-1,"extrude":0,"visibility":-1,"OBJECTID":281,"OID_":0,"ZONE":11,"DIVISION":149,"LAT":13.04472051,"LONG_":80.17330184,"name":"Kamatchi Nagar"}},
{"type":"Feature","geometry":{"type":"Point","coordinates":[80.1787932,13.051236]},"properties":{"tessellate":-1,"extrude":0,"visibility":-1,"OBJECTID":282,"OID_":0,"ZONE":11,"DIVISION":149,"LAT":13.05123596,"LONG_":80.17879321,"name":"Velan Nagar"}},
{"type":"Feature","geometry":{"type":"Point","coordinates":[80.1753616,13.046519]},"properties":{"tessellate":-1,"extrude":0,"visibility":-1,"OBJECTID":283,"OID_":0,"ZONE":11,"DIVISION":149,"LAT":13.04651898,"LONG_":80.17536159,"name":"Kanagathara Nagar Main Road"}},
{"type":"Feature","geometry":{"type":"Point","coordinates":[80.185412,13.0474804]},"properties":{"tessellate":-1,"extrude":0,"visibility":-1,"OBJECTID":284,"OID_":0,"ZONE":11,"DIVISION":149,"LAT":13.04748035,"LONG_":80.18541202,"name":"Gandhi Road"}},
{"type":"Feature","geometry":{"type":"Point","coordinates":[80.1818542,13.049548]},"properties":{"tessellate":-1,"extrude":0,"visibility":-1,"OBJECTID":285,"OID_":0,"ZONE":11,"DIVISION":149,"LAT":13.04954799,"LONG_":80.18185422,"name":"Bharathiyar Street"}},
{"type":"Feature","geometry":{"type":"Point","coordinates":[80.1817795,13.0472545]},"properties":{"tessellate":-1,"extrude":0,"visibility":-1,"OBJECTID":286,"OID_":0,"ZONE":11,"DIVISION":149,"LAT":13.04725449,"LONG_":80.18177949,"name":"Narayani Appartment"}},
{"type":"Feature","geometry":{"type":"Point","coordinates":[80.1599245,13.0384055]},"properties":{"tessellate":-1,"extrude":0,"visibility":-1,"OBJECTID":287,"OID_":0,"ZONE":11,"DIVISION":150,"LAT":13.03840546,"LONG_":80.15992451,"name":"Arcot Road Rajeshwari Nagar"}},
{"type":"Feature","geometry":{"type":"Point","coordinates":[80.1565155,13.0355914]},"properties":{"tessellate":-1,"extrude":0,"visibility":-1,"OBJECTID":288,"OID_":0,"ZONE":11,"DIVISION":150,"LAT":13.03559141,"LONG_":80.1565155,"name":"Arcot Road Thangam Store"}},
{"type":"Feature","geometry":{"type":"Point","coordinates":[80.1551426,13.0400996]},"properties":{"tessellate":-1,"extrude":0,"visibility":-1,"OBJECTID":289,"OID_":0,"ZONE":11,"DIVISION":150,"LAT":13.04009959,"LONG_":80.1551426,"name":"Mullai Street"}},
{"type":"Feature","geometry":{"type":"Point","coordinates":[80.1548812,13.0409585]},"properties":{"tessellate":-1,"extrude":0,"visibility":-1,"OBJECTID":290,"OID_":0,"ZONE":11,"DIVISION":150,"LAT":13.0409585,"LONG_":80.15488121,"name":"Arunachalam Nagar"}},
{"type":"Feature","geometry":{"type":"Point","coordinates":[80.1685903,13.0344533]},"properties":{"tessellate":-1,"extrude":0,"visibility":-1,"OBJECTID":291,"OID_":0,"ZONE":11,"DIVISION":151,"LAT":13.03445328,"LONG_":80.16859034,"name":"Chinnaporur Gandhi Street"}},
{"type":"Feature","geometry":{"type":"Point","coordinates":[80.1644016,13.0375083]},"properties":{"tessellate":-1,"extrude":0,"visibility":-1,"OBJECTID":292,"OID_":0,"ZONE":11,"DIVISION":151,"LAT":13.03750831,"LONG_":80.16440163,"name":"Arcot Road ETA"}},
{"type":"Feature","geometry":{"type":"Point","coordinates":[80.157585,13.036461]},"properties":{"tessellate":-1,"extrude":0,"visibility":-1,"OBJECTID":293,"OID_":0,"ZONE":11,"DIVISION":151,"LAT":13.03646104,"LONG_":80.15758502,"name":"Arcot Road Kumar Sweeets"}},
{"type":"Feature","geometry":{"type":"Point","coordinates":[80.169716,13.0405696]},"properties":{"tessellate":-1,"extrude":0,"visibility":-1,"OBJECTID":294,"OID_":0,"ZONE":11,"DIVISION":152,"LAT":13.0405696,"LONG_":80.16971603,"name":"Kadumbadiamma Sannathi 1st st"}},
{"type":"Feature","geometry":{"type":"Point","coordinates":[80.1853041,13.0378088]},"properties":{"tessellate":-1,"extrude":0,"visibility":-1,"OBJECTID":295,"OID_":0,"ZONE":11,"DIVISION":152,"LAT":13.03780881,"LONG_":80.18530406,"name":"Om Sakthi 3rd Street"}},
{"type":"Feature","geometry":{"type":"Point","coordinates":[80.1530296,13.0302654]},"properties":{"tessellate":-1,"extrude":0,"visibility":-1,"OBJECTID":296,"OID_":0,"ZONE":11,"DIVISION":153,"LAT":13.03026536,"LONG_":80.15302958,"name":"Kundrathur Main Road Jn of RE Nagar 1st Street"}},
{"type":"Feature","geometry":{"type":"Point","coordinates":[80.1637946,13.0248841]},"properties":{"tessellate":-1,"extrude":0,"visibility":-1,"OBJECTID":297,"OID_":0,"ZONE":11,"DIVISION":153,"LAT":13.02488406,"LONG_":80.16379458,"name":"Suresh Nagar 3rd Street"}},
{"type":"Feature","geometry":{"type":"Point","coordinates":[80.1581495,13.0265442]},"properties":{"tessellate":-1,"extrude":0,"visibility":-1,"OBJECTID":298,"OID_":0,"ZONE":11,"DIVISION":153,"LAT":13.02654424,"LONG_":80.15814955,"name":"Ramakrishna Nagar"}},
{"type":"Feature","geometry":{"type":"Point","coordinates":[80.1640776,13.0265143]},"properties":{"tessellate":-1,"extrude":0,"visibility":-1,"OBJECTID":299,"OID_":0,"ZONE":11,"DIVISION":153,"LAT":13.0265143,"LONG_":80.16407755,"name":"Ganesh Avenue 1st to 8th Street"}},
{"type":"Feature","geometry":{"type":"Point","coordinates":[80.1589614,13.0306245]},"properties":{"tessellate":-1,"extrude":0,"visibility":-1,"OBJECTID":300,"OID_":0,"ZONE":11,"DIVISION":153,"LAT":13.03062451,"LONG_":80.15896143,"name":"Ambal nagar Kumutham Street"}},
{"type":"Feature","geometry":{"type":"Point","coordinates":[80.1757739,13.0349216]},"properties":{"tessellate":-1,"extrude":0,"visibility":-1,"OBJECTID":301,"OID_":0,"ZONE":11,"DIVISION":154,"LAT":13.03492156,"LONG_":80.17577391,"name":"Balambigai 5th Street"}},
{"type":"Feature","geometry":{"type":"Point","coordinates":[80.1752293,13.02877]},"properties":{"tessellate":-1,"extrude":0,"visibility":-1,"OBJECTID":302,"OID_":0,"ZONE":11,"DIVISION":154,"LAT":13.02877001,"LONG_":80.17522934,"name":"Venkateswara Nagar 14th Streetand 1st and 2nd lane"}},
{"type":"Feature","geometry":{"type":"Point","coordinates":[80.1767268,13.0271416]},"properties":{"tessellate":-1,"extrude":0,"visibility":-1,"OBJECTID":303,"OID_":0,"ZONE":11,"DIVISION":154,"LAT":13.02714158,"LONG_":80.17672681,"name":"Kanniappan Street"}},
{"type":"Feature","geometry":{"type":"Point","coordinates":[80.1765167,13.0331368]},"properties":{"tessellate":-1,"extrude":0,"visibility":-1,"OBJECTID":304,"OID_":0,"ZONE":11,"DIVISION":154,"LAT":13.03313676,"LONG_":80.17651675,"name":"Thiruvalluvar Street"}},
{"type":"Feature","geometry":{"type":"Point","coordinates":[80.1753858,13.0341796]},"properties":{"tessellate":-1,"extrude":0,"visibility":-1,"OBJECTID":305,"OID_":0,"ZONE":11,"DIVISION":154,"LAT":13.03417957,"LONG_":80.17538575,"name":"Kakkan Street"}},
{"type":"Feature","geometry":{"type":"Point","coordinates":[80.1850225,13.0343337]},"properties":{"tessellate":-1,"extrude":0,"visibility":-1,"OBJECTID":306,"OID_":0,"ZONE":11,"DIVISION":155,"LAT":13.03433366,"LONG_":80.18502251,"name":"Kothari Nagar"}},
{"type":"Feature","geometry":{"type":"Point","coordinates":[80.1847124,13.0323882]},"properties":{"tessellate":-1,"extrude":0,"visibility":-1,"OBJECTID":307,"OID_":0,"ZONE":11,"DIVISION":155,"LAT":13.03238825,"LONG_":80.18471238,"name":"Gangai Avenue"}},
{"type":"Feature","geometry":{"type":"Point","coordinates":[80.185395,13.0297172]},"properties":{"tessellate":-1,"extrude":0,"visibility":-1,"OBJECTID":308,"OID_":0,"ZONE":11,"DIVISION":155,"LAT":13.0297172,"LONG_":80.18539503,"name":"Royala Nagar 2nd Main Road Near Kovilpillai School"}},
{"type":"Feature","geometry":{"type":"Point","coordinates":[80.1861772,13.0347534]},"properties":{"tessellate":-1,"extrude":0,"visibility":-1,"OBJECTID":309,"OID_":0,"ZONE":11,"DIVISION":155,"LAT":13.03475344,"LONG_":80.18617719,"name":"Kothari Nagar 1st,  2nd Main Road and 1 to 8 Streets"}},
{"type":"Feature","geometry":{"type":"Point","coordinates":[80.1818729,13.0347803]},"properties":{"tessellate":-1,"extrude":0,"visibility":-1,"OBJECTID":310,"OID_":0,"ZONE":11,"DIVISION":155,"LAT":13.03478029,"LONG_":80.18187289,"name":"Thirumalai Nagar Mahavishnu Street Sanjai Ram Street and Elumalai Street"}},
{"type":"Feature","geometry":{"type":"Point","coordinates":[80.1672927,13.0205888]},"properties":{"tessellate":-1,"extrude":0,"visibility":-1,"OBJECTID":311,"OID_":0,"ZONE":12,"DIVISION":156,"LAT":13.02058884,"LONG_":80.16729271,"name":"KUMUDAM NAGAR"}},
{"type":"Feature","geometry":{"type":"Point","coordinates":[80.1489022,13.022147]},"properties":{"tessellate":-1,"extrude":0,"visibility":-1,"OBJECTID":312,"OID_":0,"ZONE":12,"DIVISION":156,"LAT":13.02214699,"LONG_":80.14890217,"name":"Mugalivakkam Main Road"}},
{"type":"Feature","geometry":{"type":"Point","coordinates":[80.1425033,13.0189299]},"properties":{"tessellate":-1,"extrude":0,"visibility":-1,"OBJECTID":313,"OID_":0,"ZONE":12,"DIVISION":156,"LAT":13.01892991,"LONG_":80.14250329,"name":"ICICI Bank"}},
{"type":"Feature","geometry":{"type":"Point","coordinates":[80.1435563,13.023704]},"properties":{"tessellate":-1,"extrude":0,"visibility":-1,"OBJECTID":314,"OID_":0,"ZONE":12,"DIVISION":156,"LAT":13.02370399,"LONG_":80.14355627,"name":"Madhanandhapuram Main Road"}},
{"type":"Feature","geometry":{"type":"Point","coordinates":[80.1731998,13.0161586]},"properties":{"tessellate":-1,"extrude":0,"visibility":-1,"OBJECTID":315,"OID_":0,"ZONE":12,"DIVISION":157,"LAT":13.0161586,"LONG_":80.17319979,"name":"CRR Puram"}},
{"type":"Feature","geometry":{"type":"Point","coordinates":[80.1725247,13.0140923]},"properties":{"tessellate":-1,"extrude":0,"visibility":-1,"OBJECTID":316,"OID_":0,"ZONE":12,"DIVISION":157,"LAT":13.01409229,"LONG_":80.17252474,"name":"Krishna Nagar"}},
{"type":"Feature","geometry":{"type":"Point","coordinates":[80.1949797,13.027716]},"properties":{"tessellate":-1,"extrude":0,"visibility":-1,"OBJECTID":317,"OID_":0,"ZONE":12,"DIVISION":158,"LAT":13.02771604,"LONG_":80.19497969,"name":"Bharma Colony 4th Street and TPF"}},
{"type":"Feature","geometry":{"type":"Point","coordinates":[80.1491312,13.107194]},"properties":{"tessellate":-1,"extrude":0,"visibility":-1,"OBJECTID":318,"OID_":0,"ZONE":7,"DIVISION":85,"LAT":13.10719402,"LONG_":80.14913121,"name":"MKB Nagar"}},
{"type":"Feature","geometry":{"type":"Point","coordinates":[80.1527936,13.1080448]},"properties":{"tessellate":-1,"extrude":0,"visibility":-1,"OBJECTID":319,"OID_":0,"ZONE":7,"DIVISION":85,"LAT":13.10804484,"LONG_":80.15279356,"name":"Dobhi colony"}},
{"type":"Feature","geometry":{"type":"Point","coordinates":[80.165874,13.1031988]},"properties":{"tessellate":-1,"extrude":0,"visibility":-1,"OBJECTID":320,"OID_":0,"ZONE":7,"DIVISION":85,"LAT":13.10319883,"LONG_":80.16587395,"name":"mangalapuram"}},
{"type":"Feature","geometry":{"type":"Point","coordinates":[80.1601526,13.1014195]},"properties":{"tessellate":-1,"extrude":0,"visibility":-1,"OBJECTID":321,"OID_":0,"ZONE":7,"DIVISION":86,"LAT":13.10141948,"LONG_":80.16015262,"name":"CTH ROAD"}},
{"type":"Feature","geometry":{"type":"Point","coordinates":[80.1594284,13.1002302]},"properties":{"tessellate":-1,"extrude":0,"visibility":-1,"OBJECTID":322,"OID_":0,"ZONE":7,"DIVISION":86,"LAT":13.10023019,"LONG_":80.15942838,"name":"VGN SHANTHI COLONY"}},
{"type":"Feature","geometry":{"type":"Point","coordinates":[80.1869322,13.0954838]},"properties":{"tessellate":-1,"extrude":0,"visibility":-1,"OBJECTID":323,"OID_":0,"ZONE":7,"DIVISION":87,"LAT":13.09548384,"LONG_":80.18693225,"name":"Thiruvalluvar Street"}},
{"type":"Feature","geometry":{"type":"Point","coordinates":[80.1929465,13.1010119]},"properties":{"tessellate":-1,"extrude":0,"visibility":-1,"OBJECTID":324,"OID_":0,"ZONE":7,"DIVISION":88,"LAT":13.10101186,"LONG_":80.19294648,"name":"U.R. NAGAR"}},
{"type":"Feature","geometry":{"type":"Point","coordinates":[80.1920396,13.0977407]},"properties":{"tessellate":-1,"extrude":0,"visibility":-1,"OBJECTID":325,"OID_":0,"ZONE":7,"DIVISION":88,"LAT":13.09774066,"LONG_":80.19203956,"name":"B Sector 6th Street"}},
{"type":"Feature","geometry":{"type":"Point","coordinates":[80.1927212,13.098113]},"properties":{"tessellate":-1,"extrude":0,"visibility":-1,"OBJECTID":326,"OID_":0,"ZONE":7,"DIVISION":88,"LAT":13.09811296,"LONG_":80.19272122,"name":"B Sector 8th Street"}},
{"type":"Feature","geometry":{"type":"Point","coordinates":[80.1941255,13.0945952]},"properties":{"tessellate":-1,"extrude":0,"visibility":-1,"OBJECTID":327,"OID_":0,"ZONE":7,"DIVISION":88,"LAT":13.09459524,"LONG_":80.19412551,"name":"C Sector 6th Street"}},
{"type":"Feature","geometry":{"type":"Point","coordinates":[80.1937199,13.0916817]},"properties":{"tessellate":-1,"extrude":0,"visibility":-1,"OBJECTID":328,"OID_":0,"ZONE":7,"DIVISION":88,"LAT":13.09168169,"LONG_":80.19371986,"name":"D Sector 8th Street"}},
{"type":"Feature","geometry":{"type":"Point","coordinates":[80.1881531,13.0917044]},"properties":{"tessellate":-1,"extrude":0,"visibility":-1,"OBJECTID":329,"OID_":0,"ZONE":7,"DIVISION":88,"LAT":13.09170441,"LONG_":80.18815315,"name":"Devar Nagar"}},
{"type":"Feature","geometry":{"type":"Point","coordinates":[80.1788868,13.0928566]},"properties":{"tessellate":-1,"extrude":0,"visibility":-1,"OBJECTID":330,"OID_":0,"ZONE":7,"DIVISION":89,"LAT":13.09285656,"LONG_":80.17888676,"name":"Mathialagan Nagar"}},
{"type":"Feature","geometry":{"type":"Point","coordinates":[80.1808971,13.0898545]},"properties":{"tessellate":-1,"extrude":0,"visibility":-1,"OBJECTID":331,"OID_":0,"ZONE":7,"DIVISION":89,"LAT":13.08985454,"LONG_":80.18089708,"name":"West End colony"}},
{"type":"Feature","geometry":{"type":"Point","coordinates":[80.1784392,13.0893244]},"properties":{"tessellate":-1,"extrude":0,"visibility":-1,"OBJECTID":332,"OID_":0,"ZONE":7,"DIVISION":89,"LAT":13.0893244,"LONG_":80.1784392,"name":"Golden Colony"}},
{"type":"Feature","geometry":{"type":"Point","coordinates":[80.1919978,13.0859296]},"properties":{"tessellate":-1,"extrude":0,"visibility":-1,"OBJECTID":333,"OID_":0,"ZONE":7,"DIVISION":90,"LAT":13.08592962,"LONG_":80.19199784,"name":"Gandhi Nagar"}},
{"type":"Feature","geometry":{"type":"Point","coordinates":[80.190507,13.0865907]},"properties":{"tessellate":-1,"extrude":0,"visibility":-1,"OBJECTID":334,"OID_":0,"ZONE":7,"DIVISION":90,"LAT":13.08659072,"LONG_":80.19050696,"name":"Kalaivanar Colony"}},
{"type":"Feature","geometry":{"type":"Point","coordinates":[80.1931501,13.0870466]},"properties":{"tessellate":-1,"extrude":0,"visibility":-1,"OBJECTID":335,"OID_":0,"ZONE":7,"DIVISION":90,"LAT":13.08704661,"LONG_":80.19315008,"name":"Paddikuppam Five Star Apartments"}},
{"type":"Feature","geometry":{"type":"Point","coordinates":[80.1982099,13.0871554]},"properties":{"tessellate":-1,"extrude":0,"visibility":-1,"OBJECTID":336,"OID_":0,"ZONE":7,"DIVISION":90,"LAT":13.08715541,"LONG_":80.1982099,"name":"Thirumangalam Jn"}},
{"type":"Feature","geometry":{"type":"Point","coordinates":[80.1756978,13.0766208]},"properties":{"tessellate":-1,"extrude":0,"visibility":-1,"OBJECTID":337,"OID_":0,"ZONE":7,"DIVISION":91,"LAT":13.07662084,"LONG_":80.17569781,"name":"Mogappair Eri Scheme VGN Ave"}},
{"type":"Feature","geometry":{"type":"Point","coordinates":[80.1773189,13.0774372]},"properties":{"tessellate":-1,"extrude":0,"visibility":-1,"OBJECTID":338,"OID_":0,"ZONE":7,"DIVISION":91,"LAT":13.07743722,"LONG_":80.17731889,"name":"Mogappair Eri Scheme 7th main Rd"}},
{"type":"Feature","geometry":{"type":"Point","coordinates":[80.1818474,13.0812479]},"properties":{"tessellate":-1,"extrude":0,"visibility":-1,"OBJECTID":339,"OID_":0,"ZONE":7,"DIVISION":92,"LAT":13.08124789,"LONG_":80.18184736,"name":"Dr. J J Nagar 10th Block"}},
{"type":"Feature","geometry":{"type":"Point","coordinates":[80.1808808,13.0783723]},"properties":{"tessellate":-1,"extrude":0,"visibility":-1,"OBJECTID":340,"OID_":0,"ZONE":7,"DIVISION":92,"LAT":13.0783723,"LONG_":80.18088081,"name":"Panner Nagar Main RD"}},
{"type":"Feature","geometry":{"type":"Point","coordinates":[80.1754029,13.0834806]},"properties":{"tessellate":-1,"extrude":0,"visibility":-1,"OBJECTID":341,"OID_":0,"ZONE":7,"DIVISION":92,"LAT":13.08348055,"LONG_":80.17540289,"name":"vellar street voilet Apartments"}},
{"type":"Feature","geometry":{"type":"Point","coordinates":[80.1846328,13.0847807]},"properties":{"tessellate":-1,"extrude":0,"visibility":-1,"OBJECTID":342,"OID_":0,"ZONE":7,"DIVISION":93,"LAT":13.08478072,"LONG_":80.18463285,"name":"Nakeeran Salai"}},
{"type":"Feature","geometry":{"type":"Point","coordinates":[80.1554627,13.1373481]},"properties":{"tessellate":-1,"extrude":0,"visibility":-1,"OBJECTID":343,"OID_":0,"ZONE":7,"DIVISION":79,"LAT":13.13734809,"LONG_":80.15546266,"name":"Nathamuni Street"}},
{"type":"Feature","geometry":{"type":"Point","coordinates":[80.1730641,13.133056]},"properties":{"tessellate":-1,"extrude":0,"visibility":-1,"OBJECTID":344,"OID_":0,"ZONE":7,"DIVISION":84,"LAT":13.13305603,"LONG_":80.17306407,"name":"Gangi Amman Koil Street"}},
{"type":"Feature","geometry":{"type":"Point","coordinates":[80.19804,13.123037]},"properties":{"tessellate":-1,"extrude":0,"visibility":-1,"OBJECTID":345,"OID_":0,"ZONE":7,"DIVISION":83,"LAT":13.123037,"LONG_":80.19804,"name":"Sastha Nagar"}},
{"type":"Feature","geometry":{"type":"Point","coordinates":[80.155877,13.138609]},"properties":{"tessellate":-1,"extrude":0,"visibility":-1,"OBJECTID":346,"OID_":0,"ZONE":7,"DIVISION":79,"LAT":13.138609,"LONG_":80.155877,"name":"Mariamman Koil Strret"}},
{"type":"Feature","geometry":{"type":"Point","coordinates":[80.155795,13.135882]},"properties":{"tessellate":-1,"extrude":0,"visibility":-1,"OBJECTID":347,"OID_":0,"ZONE":7,"DIVISION":79,"LAT":13.135882,"LONG_":80.155795,"name":"Krishnan cross st"}},
{"type":"Feature","geometry":{"type":"Point","coordinates":[80.156689,13.138647]},