{"type":"FeatureCollection", "features":[
{"type":"Feature","geometry":{"type":"Point","coordinates":[80.3067999998719,13.185899999599,0]},"properties":{"OBJECTID":1,"SL_NO":0,"ZN":1,"WARD":0,"LAT":13.1859,"LONG_":80.3068,"STR_NAME":"","LOCATION":"Mahalakshmi Nagar","TYPE":"Resource Recovery Centre"}},
{"type":"Feature","geometry":{"type":"Point","coordinates":[80.2985000001922,13.1803999997217,0]},"properties":{"OBJECTID":2,"SL_NO":0,"ZN":1,"WARD":0,"LAT":13.1804,"LONG_":80.2985,"STR_NAME":"","LOCATION":"Jothi Nagar 10th Street","TYPE":"Resource Recovery Centre"}},
{"type":"Feature","geometry":{"type":"Point","coordinates":[80.3020999998227,13.1558999998708,0]},"properties":{"OBJECTID":3,"SL_NO":0,"ZN":1,"WARD":0,"LAT":13.1559,"LONG_":80.3021,"STR_NAME":"","LOCATION":"T.H.Road, Zone - 1","TYPE":"Resource Recovery Centre"}},
{"type":"Feature","geometry":{"type":"Point","coordinates":[80.302000000312,13.1559600003357,0]},"properties":{"OBJECTID":4,"SL_NO":0,"ZN":1,"WARD":0,"LAT":13.15596,"LONG_":80.302,"STR_NAME":"","LOCATION":"T.H.Road, Zone - 1","TYPE":"Resource Recovery Centre"}},
{"type":"Feature","geometry":{"type":"Point","coordinates":[80.2765999998911,13.2116000000288,0]},"properties":{"OBJECTID":5,"SL_NO":0,"ZN":2,"WARD":0,"LAT":13.2116,"LONG_":80.2766,"STR_NAME":"","LOCATION":"Manali new town 150 feet road (Burial ground)","TYPE":"Resource Recovery Centre"}},
{"type":"Feature","geometry":{"type":"Point","coordinates":[80.2733000004189,13.202200000197,0]},"properties":{"OBJECTID":6,"SL_NO":0,"ZN":2,"WARD":0,"LAT":13.2022,"LONG_":80.2733,"STR_NAME":"","LOCATION":"MRB Nagar","TYPE":"Resource Recovery Centre"}},
{"type":"Feature","geometry":{"type":"Point","coordinates":[80.2680999999538,13.1669999997926,0]},"properties":{"OBJECTID":7,"SL_NO":0,"ZN":2,"WARD":0,"LAT":13.167,"LONG_":80.2681,"STR_NAME":"","LOCATION":"Bharathiyar street","TYPE":"Resource Recovery Centre"}},
{"type":"Feature","geometry":{"type":"Point","coordinates":[80.2511999999368,13.177399999825,0]},"properties":{"OBJECTID":8,"SL_NO":0,"ZN":2,"WARD":0,"LAT":13.1774,"LONG_":80.2512,"STR_NAME":"","LOCATION":"MGR Street","TYPE":"Resource Recovery Centre"}},
{"type":"Feature","geometry":{"type":"Point","coordinates":[80.2530999999474,13.1779999996307,0]},"properties":{"OBJECTID":9,"SL_NO":0,"ZN":2,"WARD":0,"LAT":13.178,"LONG_":80.2531,"STR_NAME":"","LOCATION":"Kosapur (Near 100 bed hospital)","TYPE":"Resource Recovery Centre"}},
{"type":"Feature","geometry":{"type":"Point","coordinates":[80.2551000004509,13.1705000003777,0]},"properties":{"OBJECTID":10,"SL_NO":0,"ZN":2,"WARD":0,"LAT":13.1705,"LONG_":80.2551,"STR_NAME":"","LOCATION":"Mullai Garden","TYPE":"Resource Recovery Centre"}},
{"type":"Feature","geometry":{"type":"Point","coordinates":[80.2633999998312,13.1695999998222,0]},"properties":{"OBJECTID":11,"SL_NO":0,"ZN":2,"WARD":0,"LAT":13.1696,"LONG_":80.2634,"STR_NAME":"","LOCATION":"Sapabathi street","TYPE":"Resource Recovery Centre"}},
{"type":"Feature","geometry":{"type":"Point","coordinates":[80.195999999785,13.1711000001533,0]},"properties":{"OBJECTID":12,"SL_NO":0,"ZN":3,"WARD":0,"LAT":13.1711,"LONG_":80.196,"STR_NAME":"","LOCATION":"Kannadapalayam Burial Ground","TYPE":"Resource Recovery Centre"}},
{"type":"Feature","geometry":{"type":"Point","coordinates":[80.2037000000902,13.1697999998705,0]},"properties":{"OBJECTID":13,"SL_NO":0,"ZN":3,"WARD":0,"LAT":13.1698,"LONG_":80.2037,"STR_NAME":"","LOCATION":"Kannappasamy Nagar Burial Ground","TYPE":"Resource Recovery Centre"}},
{"type":"Feature","geometry":{"type":"Point","coordinates":[80.1824000004346,13.1450999999426,0]},"properties":{"OBJECTID":14,"SL_NO":0,"ZN":3,"WARD":0,"LAT":13.1451,"LONG_":80.1824,"STR_NAME":"","LOCATION":"Barathidhasan Nagar Burial Ground","TYPE":"Resource Recovery Centre"}},
{"type":"Feature","geometry":{"type":"Point","coordinates":[80.2029999998797,13.1528999997921,0]},"properties":{"OBJECTID":15,"SL_NO":0,"ZN":3,"WARD":0,"LAT":13.1529,"LONG_":80.203,"STR_NAME":"","LOCATION":"Barathiyar Street Burial Ground","TYPE":"Resource Recovery Centre"}},
{"type":"Feature","geometry":{"type":"Point","coordinates":[80.22459999977,13.1478999995983,0]},"properties":{"OBJECTID":16,"SL_NO":0,"ZN":3,"WARD":0,"LAT":13.1479,"LONG_":80.2246,"STR_NAME":"","LOCATION":"Truck Terminal open ground - 2 nos","TYPE":"Resource Recovery Centre"}},
{"type":"Feature","geometry":{"type":"Point","coordinates":[80.2340000003569,13.1567000003078,0]},"properties":{"OBJECTID":17,"SL_NO":0,"ZN":3,"WARD":0,"LAT":13.1567,"LONG_":80.234,"STR_NAME":"","LOCATION":"Telugu colony Burial Ground - 2 nos","TYPE":"Resource Recovery Centre"}},
{"type":"Feature","geometry":{"type":"Point","coordinates":[80.2552999995823,13.1640000004094,0]},"properties":{"OBJECTID":18,"SL_NO":0,"ZN":3,"WARD":0,"LAT":13.164,"LONG_":80.2553,"STR_NAME":"","LOCATION":"Sasthriri Nagar Burial Ground","TYPE":"Resource Recovery Centre"}},
{"type":"Feature","geometry":{"type":"Point","coordinates":[80.2617000000582,13.1504000001209,0]},"properties":{"OBJECTID":19,"SL_NO":0,"ZN":3,"WARD":0,"LAT":13.1504,"LONG_":80.2617,"STR_NAME":"","LOCATION":"Velu Street","TYPE":"Resource Recovery Centre"}},
{"type":"Feature","geometry":{"type":"Point","coordinates":[80.2585000001945,13.1595999995621,0]},"properties":{"OBJECTID":20,"SL_NO":0,"ZN":3,"WARD":0,"LAT":13.1596,"LONG_":80.2585,"STR_NAME":"","LOCATION":"Karunanithi Street","TYPE":"Resource Recovery Centre"}},
{"type":"Feature","geometry":{"type":"Point","coordinates":[80.2256999999412,13.1620999998411,0]},"properties":{"OBJECTID":21,"SL_NO":0,"ZN":3,"WARD":0,"LAT":13.1621,"LONG_":80.2257,"STR_NAME":"","LOCATION":"Masilamani Open Ground","TYPE":"Resource Recovery Centre"}},
{"type":"Feature","geometry":{"type":"Point","coordinates":[80.2245999999299,13.1351000003527,0]},"properties":{"OBJECTID":22,"SL_NO":0,"ZN":3,"WARD":0,"LAT":13.1351,"LONG_":80.2246,"STR_NAME":"","LOCATION":"Selvam Nagar Open Ground","TYPE":"Resource Recovery Centre"}},
{"type":"Feature","geometry":{"type":"Point","coordinates":[80.2426000003603,13.1411100002411,0]},"properties":{"OBJECTID":23,"SL_NO":0,"ZN":4,"WARD":0,"LAT":13.14111,"LONG_":80.2426,"STR_NAME":"","LOCATION":"Vazhuthalaimedu Road","TYPE":"Resource Recovery Centre"}},
{"type":"Feature","geometry":{"type":"Point","coordinates":[80.2532000002515,13.1345000001864,0]},"properties":{"OBJECTID":24,"SL_NO":0,"ZN":4,"WARD":0,"LAT":13.1345,"LONG_":80.2532,"STR_NAME":"","LOCATION":"KKD Nagar 6th Main Road 5th Block","TYPE":"Resource Recovery Centre"}},
{"type":"Feature","geometry":{"type":"Point","coordinates":[80.2457999999777,13.1376999998867,0]},"properties":{"OBJECTID":25,"SL_NO":0,"ZN":4,"WARD":0,"LAT":13.1377,"LONG_":80.2458,"STR_NAME":"","LOCATION":"Muthamil Nagar 7th block","TYPE":"Resource Recovery Centre"}},
{"type":"Feature","geometry":{"type":"Point","coordinates":[80.248300000262,13.1245000001479,0]},"properties":{"OBJECTID":26,"SL_NO":0,"ZN":4,"WARD":0,"LAT":13.1245,"LONG_":80.2483,"STR_NAME":"","LOCATION":"Ambedkar Street Suzhpunalkarai","TYPE":"Resource Recovery Centre"}},
{"type":"Feature","geometry":{"type":"Point","coordinates":[80.2601000000708,13.1253000001853,0]},"properties":{"OBJECTID":27,"SL_NO":0,"ZN":4,"WARD":0,"LAT":13.1253,"LONG_":80.2601,"STR_NAME":"","LOCATION":"TVK Link","TYPE":"Resource Recovery Centre"}},
{"type":"Feature","geometry":{"type":"Point","coordinates":[80.2640000000831,13.126399999893,0]},"properties":{"OBJECTID":28,"SL_NO":0,"ZN":4,"WARD":0,"LAT":13.1264,"LONG_":80.264,"STR_NAME":"","LOCATION":"North Avenue Road","TYPE":"Resource Recovery Centre"}},
{"type":"Feature","geometry":{"type":"Point","coordinates":[80.2619400000163,13.1264000003824,0]},"properties":{"OBJECTID":29,"SL_NO":0,"ZN":4,"WARD":0,"LAT":13.1264,"LONG_":80.26194,"STR_NAME":"","LOCATION":"Burial Ground","TYPE":"Resource Recovery Centre"}},
{"type":"Feature","geometry":{"type":"Point","coordinates":[80.2911999996185,13.1068000003864,0]},"properties":{"OBJECTID":30,"SL_NO":0,"ZN":5,"WARD":0,"LAT":13.1068,"LONG_":80.2912,"STR_NAME":"","LOCATION":"O.S.H road","TYPE":"Resource Recovery Centre"}},
{"type":"Feature","geometry":{"type":"Point","coordinates":[80.2740000001832,13.1028000002163,0]},"properties":{"OBJECTID":31,"SL_NO":0,"ZN":5,"WARD":0,"LAT":13.1028,"LONG_":80.274,"STR_NAME":"","LOCATION":"Wall tax road","TYPE":"Resource Recovery Centre"}},
{"type":"Feature","geometry":{"type":"Point","coordinates":[80.2649999996883,13.0724999999669,0]},"properties":{"OBJECTID":32,"SL_NO":0,"ZN":5,"WARD":0,"LAT":13.0725,"LONG_":80.265,"STR_NAME":"","LOCATION":"Ayya sami street","TYPE":"Resource Recovery Centre"}},
{"type":"Feature","geometry":{"type":"Point","coordinates":[80.270900000058,13.0721000002722,0]},"properties":{"OBJECTID":33,"SL_NO":0,"ZN":5,"WARD":0,"LAT":13.0721,"LONG_":80.2709,"STR_NAME":"","LOCATION":"Adhi kesavalu street","TYPE":"Resource Recovery Centre"}},
{"type":"Feature","geometry":{"type":"Point","coordinates":[80.2381000001439,13.1223999998158,0]},"properties":{"OBJECTID":34,"SL_NO":0,"ZN":6,"WARD":0,"LAT":13.1224,"LONG_":80.2381,"STR_NAME":"","LOCATION":"Thangal burial ground - Pallavan salai","TYPE":"Resource Recovery Centre"}},
{"type":"Feature","geometry":{"type":"Point","coordinates":[80.1583500002938,13.1404999998507,0]},"properties":{"OBJECTID":35,"SL_NO":0,"ZN":7,"WARD":0,"LAT":13.1405,"LONG_":80.15835,"STR_NAME":"","LOCATION":"Oragadam Burial Ground","TYPE":"Resource Recovery Centre"}},
{"type":"Feature","geometry":{"type":"Point","coordinates":[80.1595499999726,13.1232400001368,0]},"properties":{"OBJECTID":36,"SL_NO":0,"ZN":7,"WARD":0,"LAT":13.12324,"LONG_":80.15955,"STR_NAME":"","LOCATION":"Thangal Eri park","TYPE":"Resource Recovery Centre"}},
{"type":"Feature","geometry":{"type":"Point","coordinates":[80.169459999717,13.1249299998191,0]},"properties":{"OBJECTID":37,"SL_NO":0,"ZN":7,"WARD":0,"LAT":13.12493,"LONG_":80.16946,"STR_NAME":"","LOCATION":"Menambedu Burial Ground,div-82","TYPE":"Resource Recovery Centre"}},
{"type":"Feature","geometry":{"type":"Point","coordinates":[80.1695700000045,13.1250499999418,0]},"properties":{"OBJECTID":38,"SL_NO":0,"ZN":7,"WARD":0,"LAT":13.12505,"LONG_":80.16957,"STR_NAME":"","LOCATION":"Menambedu Burial Ground","TYPE":"Resource Recovery Centre"}},
{"type":"Feature","geometry":{"type":"Point","coordinates":[80.1871599999231,13.1113399998117,0]},"properties":{"OBJECTID":39,"SL_NO":0,"ZN":7,"WARD":0,"LAT":13.11134,"LONG_":80.18716,"STR_NAME":"","LOCATION":"TNHB 61st Street Park","TYPE":"Resource Recovery Centre"}},
{"type":"Feature","geometry":{"type":"Point","coordinates":[80.1871599997602,13.0994900002647,0]},"properties":{"OBJECTID":40,"SL_NO":0,"ZN":7,"WARD":0,"LAT":13.09949,"LONG_":80.18716,"STR_NAME":"","LOCATION":"Kannagi Nagar Burial Ground","TYPE":"Resource Recovery Centre"}},
{"type":"Feature","geometry":{"type":"Point","coordinates":[80.1498300000115,13.0978199995582,0]},"properties":{"OBJECTID":41,"SL_NO":0,"ZN":7,"WARD":0,"LAT":13.09782,"LONG_":80.14983,"STR_NAME":"","LOCATION":"Athipet Dumping Yard","TYPE":"Resource Recovery Centre"}},
{"type":"Feature","geometry":{"type":"Point","coordinates":[80.1772300003427,13.0919100000642,0]},"properties":{"OBJECTID":42,"SL_NO":0,"ZN":7,"WARD":0,"LAT":13.09191,"LONG_":80.17723,"STR_NAME":"","LOCATION":"Mogappair road Burial Ground,div -92","TYPE":"Resource Recovery Centre"}},
{"type":"Feature","geometry":{"type":"Point","coordinates":[80.1941799995546,13.0903599998289,0]},"properties":{"OBJECTID":43,"SL_NO":0,"ZN":7,"WARD":0,"LAT":13.09036,"LONG_":80.19418,"STR_NAME":"","LOCATION":"Kannagi Nagar Burial Ground,div-84","TYPE":"Resource Recovery Centre"}},
{"type":"Feature","geometry":{"type":"Point","coordinates":[80.1806799996929,13.0776500002455,0]},"properties":{"OBJECTID":44,"SL_NO":0,"ZN":7,"WARD":0,"LAT":13.07765,"LONG_":80.18068,"STR_NAME":"","LOCATION":"Mogappair road","TYPE":"Resource Recovery Centre"}},
{"type":"Feature","geometry":{"type":"Point","coordinates":[80.1906200004269,13.0792300000445,0]},"properties":{"OBJECTID":45,"SL_NO":0,"ZN":7,"WARD":0,"LAT":13.07923,"LONG_":80.19062,"STR_NAME":"","LOCATION":"Padikuppam Burial Ground Road","TYPE":"Resource Recovery Centre"}},
{"type":"Feature","geometry":{"type":"Point","coordinates":[80.1883400003341,13.0838900001099,0]},"properties":{"OBJECTID":46,"SL_NO":0,"ZN":7,"WARD":0,"LAT":13.08389,"LONG_":80.18834,"STR_NAME":"","LOCATION":"Mogappair Eri Scheme 7th cross street","TYPE":"Resource Recovery Centre"}},
{"type":"Feature","geometry":{"type":"Point","coordinates":[80.1772300003427,13.0919100000642,0]},"properties":{"OBJECTID":47,"SL_NO":0,"ZN":7,"WARD":0,"LAT":13.09191,"LONG_":80.17723,"STR_NAME":"","LOCATION":"Mogappair road Burial Ground","TYPE":"Resource Recovery Centre"}},
{"type":"Feature","geometry":{"type":"Point","coordinates":[80.1797800004473,13.0724600003315,0]},"properties":{"OBJECTID":48,"SL_NO":0,"ZN":7,"WARD":0,"LAT":13.07246,"LONG_":80.17978,"STR_NAME":"","LOCATION":"Gangai Amman Koil street","TYPE":"Resource Recovery Centre"}},
{"type":"Feature","geometry":{"type":"Point","coordinates":[80.2218999997152,13.0953400001918,0]},"properties":{"OBJECTID":49,"SL_NO":0,"ZN":8,"WARD":0,"LAT":13.09534,"LONG_":80.2219,"STR_NAME":"","LOCATION":"Velangadu Burial Ground.","TYPE":"Resource Recovery Centre"}},
{"type":"Feature","geometry":{"type":"Point","coordinates":[80.2514000002387,13.09069999963,0]},"properties":{"OBJECTID":50,"SL_NO":0,"ZN":8,"WARD":0,"LAT":13.0907,"LONG_":80.2514,"STR_NAME":"","LOCATION":"Otteri Burial Ground.","TYPE":"Resource Recovery Centre"}},
{"type":"Feature","geometry":{"type":"Point","coordinates":[80.327842990242,13.2244491897908,0]},"properties":{"OBJECTID":51,"SL_NO":0,"ZN":1,"WARD":0,"LAT":13.224449,"LONG_":80.327843,"STR_NAME":"","LOCATION":"Thalankuppam","TYPE":"Resource Recovery Centre"}},
{"type":"Feature","geometry":{"type":"Point","coordinates":[80.3203599999173,13.2174300003597,0]},"properties":{"OBJECTID":52,"SL_NO":0,"ZN":1,"WARD":0,"LAT":13.21743,"LONG_":80.32036,"STR_NAME":"","LOCATION":"Grama Street","TYPE":"Resource Recovery Centre"}},
{"type":"Feature","geometry":{"type":"Point","coordinates":[80.3166499999977,13.1959800003814,0]},"properties":{"OBJECTID":53,"SL_NO":0,"ZN":1,"WARD":0,"LAT":13.19598,"LONG_":80.31665,"STR_NAME":"","LOCATION":"Annai Sivagami Nagar","TYPE":"Resource Recovery Centre"}},
{"type":"Feature","geometry":{"type":"Point","coordinates":[80.314359090946,13.1842377811787,0]},"properties":{"OBJECTID":54,"SL_NO":0,"ZN":1,"WARD":0,"LAT":13.184238,"LONG_":80.314359,"STR_NAME":"","LOCATION":"Ramakrishna Nagar","TYPE":"Resource Recovery Centre"}},
{"type":"Feature","geometry":{"type":"Point","coordinates":[80.3143168069706,13.1841358298023,0]},"properties":{"OBJECTID":55,"SL_NO":0,"ZN":1,"WARD":0,"LAT":13.184136,"LONG_":80.314317,"STR_NAME":"","LOCATION":"Bharath Nagar","TYPE":"Resource Recovery Centre"}},
{"type":"Feature","geometry":{"type":"Point","coordinates":[80.2965575000187,13.1671222995975,0]},"properties":{"OBJECTID":56,"SL_NO":0,"ZN":1,"WARD":0,"LAT":13.167122,"LONG_":80.296558,"STR_NAME":"","LOCATION":"Basin Road","TYPE":"Resource Recovery Centre"}},
{"type":"Feature","geometry":{"type":"Point","coordinates":[80.2988269999148,13.1601150002942,0]},"properties":{"OBJECTID":57,"SL_NO":0,"ZN":1,"WARD":0,"LAT":13.160115,"LONG_":80.298827,"STR_NAME":"","LOCATION":"West Mada Street","TYPE":"Resource Recovery Centre"}},
{"type":"Feature","geometry":{"type":"Point","coordinates":[80.2877400001921,13.1577400002982,0]},"properties":{"OBJECTID":58,"SL_NO":0,"ZN":1,"WARD":0,"LAT":13.15774,"LONG_":80.28774,"STR_NAME":"","LOCATION":"Sathagadu dumping yard","TYPE":"Resource Recovery Centre"}},
{"type":"Feature","geometry":{"type":"Point","coordinates":[80.3044200003916,13.1569800002336,0]},"properties":{"OBJECTID":59,"SL_NO":0,"ZN":1,"WARD":0,"LAT":13.15698,"LONG_":80.30442,"STR_NAME":"","LOCATION":"Ellaiyamman Koil Street","TYPE":"Resource Recovery Centre"}},
{"type":"Feature","geometry":{"type":"Point","coordinates":[80.2291140298209,13.1809416296071,0]},"properties":{"OBJECTID":60,"SL_NO":0,"ZN":2,"WARD":0,"LAT":13.180942,"LONG_":80.229114,"STR_NAME":"","LOCATION":"Kathakuzhi Burial ground","TYPE":"Resource Recovery Centre"}},
{"type":"Feature","geometry":{"type":"Point","coordinates":[80.2529500001412,13.1781133297271,0]},"properties":{"OBJECTID":61,"SL_NO":0,"ZN":2,"WARD":0,"LAT":13.178113,"LONG_":80.25295,"STR_NAME":"","LOCATION":"MGR Street","TYPE":"Resource Recovery Centre"}},
{"type":"Feature","geometry":{"type":"Point","coordinates":[80.1966714999968,13.1036718997897,0]},"properties":{"OBJECTID":62,"SL_NO":0,"ZN":8,"WARD":0,"LAT":13.103672,"LONG_":80.196671,"STR_NAME":"","LOCATION":"Villivakkam Burial Ground.","TYPE":"Resource Recovery Centre"}},
{"type":"Feature","geometry":{"type":"Point","coordinates":[80.1743519998307,13.0576409998209,0]},"properties":{"OBJECTID":63,"SL_NO":0,"ZN":11,"WARD":0,"LAT":13.057641,"LONG_":80.174352,"STR_NAME":"","LOCATION":"Gangaiamman Koil Street","TYPE":"Resource Recovery Centre"}},
{"type":"Feature","geometry":{"type":"Point","coordinates":[80.1625599995914,13.0383770001952,0]},"properties":{"OBJECTID":64,"SL_NO":0,"ZN":11,"WARD":0,"LAT":13.038377,"LONG_":80.16256,"STR_NAME":"","LOCATION":"Alapakkam Cross street","TYPE":"Resource Recovery Centre"}}
]}
